RC	UFI	UNI	LAT	LONG	DMS_LAT	DMS_LONG	MGRS	JOG	FC	DSG	PC	CC1	ADM1	POP	ELEV	CC2	NT	LC	SHORT_FORM	GENERIC	SORT_NAME_RO	FULL_NAME_RO	FULL_NAME_ND_RO	SORT_NAME_RG	FULL_NAME_RG	FULL_NAME_ND_RG	NOTE	MODIFY_DATE	DISPLAY	NAME_RANK	NAME_LINK	TRANSL_CD	NM_MODIFY_DATE	F_EFCTV_DT	F_TERM_DT
5	-73738	-108059	1.335833	103.8975	1:20:09N	103:53:51E	48NUG7734547677	NA48-10	P	PPLX		SN	00				N				MOUNTVERNON	Mount Vernon	Mount Vernon	MOUNTVERNON	Mount Vernon	Mount Vernon		1995-07-26	1,2,3,4,5	1			1993-09-01		
5	-73730	-108049	1.310556	103.813611	1:18:38N	103:48:49E	48NUG6800944887	NA48-10	P	PPLX		SN	00				N				TYERSALLPARK	Tyersall Park	Tyersall Park	TYERSALLPARK	Tyersall Park	Tyersall Park		1995-07-26	1,2,3,4,5	1			1993-09-01		
5	-73391	-107595	1.415278	103.676667	1:24:55N	103:40:36E	48NUG5277856473	NA48-10	P	PPLL		SN	00				N				LIMCHUKANGESTATE	Lim Chu Kang Estate	Lim Chu Kang Estate	LIMCHUKANGESTATE	Lim Chu Kang Estate	Lim Chu Kang Estate		1995-04-27	1,2,3,4,5	1			1995-04-25		
5	-73390	-107594	1.316944	103.794167	1:19:01N	103:47:39E	48NUG6584645595	NA48-10	P	PPLX		SN	00				N				LEEDONPARK	Leedon Park	Leedon Park	LEEDONPARK	Leedon Park	Leedon Park		1995-07-26	1,2,3,4,5	1			1993-09-01		
5	-73387	31280	1.376944	103.731389	1:22:37N	103:43:53E	48NUG5886452232	NA48-10	P	PPL		SN	00				N		Lam San		LAMSANVILLAGE	Lam San Village	Lam San Village	LAMSANVILLAGE	Lam San Village	Lam San Village		1995-07-26	1,2,3,4,5	1			1995-07-26		
5	-73387	-107589	1.376944	103.731389	1:22:37N	103:43:53E	48NUG5886452232	NA48-10	P	PPL		SN	00				V				LAMSAN	Lam San	Lam San	LAMSAN	Lam San	Lam San		1995-07-26	1,2,3,4,5				1995-07-26		
5	-73372	-107569	1.361667	103.665278	1:21:42N	103:39:55E	48NUG5150750547	NA48-10	P	PPLX		SN	00				N				KIANTECKSANESTATE	Kian Teck San Estate	Kian Teck San Estate	KIANTECKSANESTATE	Kian Teck San Estate	Kian Teck San Estate		1995-07-26	1,2,3,4,5	1			1993-09-01		
5	-73685	-107990	1.415556	103.761667	1:24:56N	103:45:42E	48NUG6223656499	NA48-10	P	PPLL		SN	00				N				TECKCHONGESTATE	Teck Chong Estate	Teck Chong Estate	TECKCHONGESTATE	Teck Chong Estate	Teck Chong Estate		1995-04-27	1,2,3,4,5	1			1995-04-25		
5	-73683	-107986	1.453333	103.798889	1:27:12N	103:47:56E	48NUG6637960673	NA48-10	P	PPLL		SN	00				N				TAYKENGLOONESTATE	Tay Keng Loon Estate	Tay Keng Loon Estate	TAYKENGLOONESTATE	Tay Keng Loon Estate	Tay Keng Loon Estate		1995-04-27	1,2,3,4,5	1			1995-04-25		
5	-73665	-107962	1.421389	104.050278	1:25:17N	104:03:01E	48NUG9434757128	NA48-10	P	PPLL		SN	00				N				SUNGAIUNUMESTATE	Sungai Unum Estate	Sungai Unum Estate	SUNGAIUNUMESTATE	Sungai Unum Estate	Sungai Unum Estate		1995-04-27	1,2,3,4,5	1			1995-04-25		
5	-73653	-107948	1.315833	103.944444	1:18:57N	103:56:40E	48NUG8256745464	NA48-10	P	PPLX		SN	00				N				SPRINGPARKESTATE	Spring Park Estate	Spring Park Estate	SPRINGPARKESTATE	Spring Park Estate	Spring Park Estate		1995-07-26	1,2,3,4,5	1			1993-09-01		
5	-73646	-107939	1.358889	103.664722	1:21:32N	103:39:53E	48NUG5144550239	NA48-10	P	PPLL		SN	00				N				SONGHAHESTATE	Song Hah Estate	Song Hah Estate	SONGHAHESTATE	Song Hah Estate	Song Hah Estate		1995-07-26	1,2,3,4,5	1			1993-09-01		
5	-73640	-107928	1.379167	103.857778	1:22:45N	103:51:28E	48NUG7292752470	NA48-10	P	PPLL		SN	00				N				SINGAPOREUNITEDPLANTATION	Singapore United Plantation	Singapore United Plantation	SINGAPOREUNITEDPLANTATION	Singapore United Plantation	Singapore United Plantation		1995-04-27	1,2,3,4,5	1			1995-04-25		
5	-73411	-107625	1.441111	103.770833	1:26:28N	103:46:15E	48NUG6325759323	NA48-10	P	PPL		SN	00				N				MARSILING	Marsiling	Marsiling	MARSILING	Marsiling	Marsiling		1995-04-27	1,2,3,4,5	1			1995-04-27		
5	-73356	-107548	1.316667	103.9	1:19:00N	103:54:00E	48NUG7762245559	NA48-10	P	PPLX		SN	00				D				KAMPONGWAKTANJONG	Kampong Wak Tanjong	Kampong Wak Tanjong	KAMPONGWAKTANJONG	Kampong Wak Tanjong	Kampong Wak Tanjong		1995-07-26	1,2,3,4,5	1			1993-09-01		
5	-73395	-107601	1.316667	103.866667	1:19:00N	103:52:00E	48NUG7391345560	NA48-10	P	PPLX		SN	00				D				LORONGTIGAESTATE	Lorong Tiga Estate	Lorong Tiga Estate	LORONGTIGAESTATE	Lorong Tiga Estate	Lorong Tiga Estate		1995-07-26	1,2,3,4,5	1			1993-09-01		
5	-73344	-108008	1.371944	103.703889	1:22:19N	103:42:14E	48NUG5580451680	NA48-10	P	PPL		SN	00				N				TENGAH	Tengah	Tengah	TENGAH	Tengah	Tengah		1995-04-26	1,2,3,4,5	1			1995-04-26		
5	-73344	-107534	1.371944	103.703889	1:22:19N	103:42:14E	48NUG5580451680	NA48-10	P	PPL		SN	00				V				KAMPONGTENGAH	Kampong Tengah	Kampong Tengah	KAMPONGTENGAH	Kampong Tengah	Kampong Tengah		1995-04-26	1,2,3,4,5				1995-04-26		
5	-73338	-107527	1.2625	103.7	1:15:45N	103:42:00E	48NUG5536539581	NA48-10	P	PPLX		SN	00				N				KAMPONGTANAHMERAH	Kampong Tanah Merah	Kampong Tanah Merah	KAMPONGTANAHMERAH	Kampong Tanah Merah	Kampong Tanah Merah		1995-07-26	1,2,3,4,5	1			1993-09-01		
5	-73337	-107526	1.37	103.951111	1:22:12N	103:57:04E	48NUG8331251452	NA48-10	P	PPLX		SN	00				N				KAMPONGTAMPINES	Kampong Tampines	Kampong Tampines	KAMPONGTAMPINES	Kampong Tampines	Kampong Tampines		1995-07-26	1,2,3,4,5	1			1993-09-01		
5	-73336	-107524	1.383333	103.9	1:23:00N	103:54:00E	48NUG7762552929	NA48-10	P	PPL		SN	00				D				KAMPONGSUNGAITENGAH	Kampong Sungai Tengah	Kampong Sungai Tengah	KAMPONGSUNGAITENGAH	Kampong Sungai Tengah	Kampong Sungai Tengah		1995-07-26	1,2,3,4,5	1			1993-09-01		
5	-73335	-107523	1.316667	103.75	1:19:00N	103:45:00E	48NUG6093245566	NA48-10	P	PPL		SN	00				D				KAMPONGSUNGAIPANDAN	Kampong Sungai Pandan	Kampong Sungai Pandan	KAMPONGSUNGAIPANDAN	Kampong Sungai Pandan	Kampong Sungai Pandan		1995-07-26	1,2,3,4,5	1			1993-09-01		
5	-73606	-107878	1.372778	103.830278	1:22:22N	103:49:49E	48NUG6986751765	NA48-10	P	PPLX		SN	00				N				SEMBAWANGHILLSESTATE	Sembawang Hills Estate	Sembawang Hills Estate	SEMBAWANGHILLSESTATE	Sembawang Hills Estate	Sembawang Hills Estate		1995-07-26	1,2,3,4,5	1			1993-09-01		
5	-73675	-107976	1.358056	103.940278	1:21:29N	103:56:25E	48NUG8210650132	NA48-10	P	PPLX		SN	00				D				TAMPINESESTATE	Tampines Estate	Tampines Estate	TAMPINESESTATE	Tampines Estate	Tampines Estate		1995-04-26	1,2,3,4,5	1			1995-04-26		
5	-73670	-107971	1.336111	103.903611	1:20:10N	103:54:13E	48NUG7802547708	NA48-10	P	PPLX		SN	00				N				TAISENG	Tai Seng	Tai Seng	TAISENG	Tai Seng	Tai Seng		1995-07-26	1,2,3,4,5	1			1993-09-01		
5	-73667	-107968	1.32	103.831667	1:19:12N	103:49:54E	48NUG7001945930	NA48-10	P	PPLX		SN	00				N				SWISSCOTTAGEESTATE	Swiss Cottage Estate	Swiss Cottage Estate	SWISSCOTTAGEESTATE	Swiss Cottage Estate	Swiss Cottage Estate		1995-07-26	1,2,3,4,5	1			1993-09-01		
5	-73281	-107465	1.316667	103.866667	1:19:00N	103:52:00E	48NUG7391345560	NA48-10	P	PPLX		SN	00				D				KAMPONGHOCKSOON	Kampong Hock Soon	Kampong Hock Soon	KAMPONGHOCKSOON	Kampong Hock Soon	Kampong Hock Soon		1995-07-26	1,2,3,4,5	1			1993-09-01		
5	-73280	-107464	1.320833	103.917778	1:19:15N	103:55:04E	48NUG7960046018	NA48-10	P	PPLX		SN	00				N				KAMPONGEUNOS	Kampong Eunos	Kampong Eunos	KAMPONGEUNOS	Kampong Eunos	Kampong Eunos		1995-07-26	1,2,3,4,5	1			1993-09-01		
5	-73279	-107462	1.381944	103.736389	1:22:55N	103:44:11E	48NUG5942152784	NA48-10	P	PPL		SN	00				N				KAMPONGCUTFORTH	Kampong Cutforth	Kampong Cutforth	KAMPONGCUTFORTH	Kampong Cutforth	Kampong Cutforth		1995-04-27	1,2,3,4,5	1			1995-04-27		
5	-73333	-107521	1.388056	103.918333	1:23:17N	103:55:06E	48NUG7966553450	NA48-10	P	PPL		SN	00				N				KAMPONGSUNGAIBLUKAR	Kampong Sungai Blukar	Kampong Sungai Blukar	KAMPONGSUNGAIBLUKAR	Kampong Sungai Blukar	Kampong Sungai Blukar		1995-04-27	1,2,3,4,5	1			1995-04-27		
5	-73332	-107520	1.423333	104.066667	1:25:24N	104:04:00E	48NUG9617157342	NA48-10	P	PPL		SN	00				N				KAMPONGSUNGAIBELANG	Kampong Sungai Belang	Kampong Sungai Belang	KAMPONGSUNGAIBELANG	Kampong Sungai Belang	Kampong Sungai Belang		1995-04-27	1,2,3,4,5	1			1995-04-27		
5	-73327	-107514	1.283333	103.733333	1:17:00N	103:44:00E	48NUG5907541882	NA48-10	P	PPL		SN	00				D				KAMPONGSERAYA	Kampong Seraya	Kampong Seraya	KAMPONGSERAYA	Kampong Seraya	Kampong Seraya		1995-07-26	1,2,3,4,5	1			1993-09-01		
5	-73326	-107513	1.39	103.907222	1:23:24N	103:54:26E	48NUG7842953665	NA48-10	P	PPL		SN	00				N				KAMPONGSERANGOONKECHIL	Kampong Serangoon Kechil	Kampong Serangoon Kechil	KAMPONGSERANGOONKECHIL	Kampong Serangoon Kechil	Kampong Serangoon Kechil		1995-04-27	1,2,3,4,5	1			1995-04-27		
5	-73325	-107512	1.406944	104.039444	1:24:25N	104:02:22E	48NUG9314155532	NA48-10	P	PPL		SN	00				N				KAMPONGSEMINEI	Kampong Seminei	Kampong Seminei	KAMPONGSEMINEI	Kampong Seminei	Kampong Seminei		1995-04-27	1,2,3,4,5	1			1995-04-26		
5	-73325	-107886	1.406944	104.039444	1:24:25N	104:02:22E	48NUG9314155532	NA48-10	P	PPL		SN	00				V				SEMINOI	Seminoi	Seminoi	SEMINOI	Seminoi	Seminoi		1995-04-27	1,2,3,4,5				1995-04-26		
5	-73323	-107509	1.398333	104.057778	1:23:54N	104:03:28E	48NUG9518154579	NA48-10	P	PPL		SN	00				N				KAMPONGSANYONGKONG	Kampong Sanyongkong	Kampong Sanyongkong	KAMPONGSANYONGKONG	Kampong Sanyongkong	Kampong Sanyongkong		1995-04-27	1,2,3,4,5	1			1995-04-27		
5	-73320	-107506	1.216667	103.766667	1:13:00N	103:46:00E	48NUG6278134510	NA48-10	P	PPL		SN	00				D				KAMPONGSAIGON	Kampong Saigon	Kampong Saigon	KAMPONGSAIGON	Kampong Saigon	Kampong Saigon		1995-07-26	1,2,3,4,5	1			1993-09-01		
5	-73319	-107505	1.333333	103.9	1:20:00N	103:54:00E	48NUG7762347401	NA48-10	P	PPL		SN	00				D				KAMPONGRETEH	Kampong Reteh	Kampong Reteh	KAMPONGRETEH	Kampong Reteh	Kampong Reteh		1995-07-26	1,2,3,4,5	1			1993-09-01		
5	-73318	-107504	1.273889	103.824167	1:16:26N	103:49:27E	48NUG6918240833	NA48-10	P	PPLX		SN	00				N				RADINMAS	Radin Mas	Radin Mas	RADINMAS	Radin Mas	Radin Mas		1995-07-26	1,2,3,4,5	1			1993-09-01		
5	-73318	37014	1.273889	103.824167	1:16:26N	103:49:27E	48NUG6918240833	NA48-10	P	PPLX		SN	00				V				KAMPONGRADINMAS	Kampong Radin Mas	Kampong Radin Mas	KAMPONGRADINMAS	Kampong Radin Mas	Kampong Radin Mas		1995-07-26	1,2,3,4,5				1993-09-01		
5	-73558	-107821	1.266667	103.833333	1:16:00N	103:50:00E	48NUG7020240034	NA48-10	P	PPL		SN	00				D				SAGA	Saga	Saga	SAGA	Saga	Saga		1995-07-26	1,2,3,4,5	1			1995-06-21		
5	-73558	-107822	1.266667	103.833333	1:16:00N	103:50:00E	48NUG7020240034	NA48-10	P	PPL		SN	00				V				SAGAVILLAGE	Saga Village	Saga Village	SAGAVILLAGE	Saga Village	Saga Village		1995-07-26	1,2,3,4,5				1995-06-21		
5	-73543	-107798	1.333333	103.8	1:20:00N	103:48:00E	48NUG6649647406	NA48-10	P	PPLX		SN	00				D				RACECOURSEVILLAGE	Race Course Village	Race Course Village	RACECOURSEVILLAGE	Race Course Village	Race Course Village		1995-07-26	1,2,3,4,5	1			1993-09-01		
5	-73541	-107795	1.318889	103.790833	1:19:08N	103:47:27E	48NUG6547545810	NA48-10	P	PPLX		SN	00				N				QUEENASTRIDPARK	Queen Astrid Park	Queen Astrid Park	QUEENASTRIDPARK	Queen Astrid Park	Queen Astrid Park		1995-07-26	1,2,3,4,5	1			1993-09-01		
5	-73536	-107788	1.414444	103.906944	1:24:52N	103:54:25E	48NUG7840056368	NA48-10	P	PPL		SN	00				N				PUNGGOL	Punggol	Punggol	PUNGGOL	Punggol	Punggol		1996-11-29	1,2,3,4,5,6	1			1995-04-26		
5	-73536	-107792	1.414444	103.906944	1:24:52N	103:54:25E	48NUG7840056368	NA48-10	P	PPL		SN	00				V				PUNGGOLVILLAGE	Punggol Village	Punggol Village	PUNGGOLVILLAGE	Punggol Village	Punggol Village		1996-11-29	1,2,3,4,5,6				1995-04-26		
5	-73531	-107781	1.316667	103.866667	1:19:00N	103:52:00E	48NUG7391345560	NA48-10	P	PPLX		SN	00				D				PULAUMINYAK	Pulau Minyak	Pulau Minyak	PULAUMINYAK	Pulau Minyak	Pulau Minyak		1995-07-26	1,2,3,4,5	1			1993-09-01		
5	-73524	-107774	1.362222	103.759444	1:21:44N	103:45:34E	48NUG6198550602	NA48-10	P	PPLX		SN	00				N				PRINCESSELIZABETHESTATE	Princess Elizabeth Estate	Princess Elizabeth Estate	PRINCESSELIZABETHESTATE	Princess Elizabeth Estate	Princess Elizabeth Estate		1995-07-26	1,2,3,4,5	1			1993-09-01		
5	-73523	-107773	1.3	103.766667	1:18:00N	103:46:00E	48NUG6278543723	NA48-10	P	PPLX		SN	00				D				PRINCEEDWARDPOINT	Prince Edward Point	Prince Edward Point	PRINCEEDWARDPOINT	Prince Edward Point	Prince Edward Point		1995-07-26	1,2,3,4,5	1			1993-09-01		
5	-73522	-107772	1.296389	103.773611	1:17:47N	103:46:25E	48NUG6355843323	NA48-10	P	PPLX		SN	00				N				PRINCEEDWARDPARK	Prince Edward Park	Prince Edward Park	PRINCEEDWARDPARK	Prince Edward Park	Prince Edward Park		1995-07-26	1,2,3,4,5	1			1993-09-01		
5	-73277	-107460	1.35	103.788333	1:21:00N	103:47:18E	48NUG6519949249	NA48-10	P	PPLX		SN	00				N				KAMPONGCHANTEKBAHARU	Kampong Chantek Baharu	Kampong Chantek Baharu	KAMPONGCHANTEKBAHARU	Kampong Chantek Baharu	Kampong Chantek Baharu		1995-07-26	1,2,3,4,5	1			1993-09-01		
5	-73275	-107458	1.333333	103.933333	1:20:00N	103:56:00E	48NUG8133247399	NA48-10	P	PPL		SN	00				D				KAMPONGCHAICHEE	Kampong Chai Chee	Kampong Chai Chee	KAMPONGCHAICHEE	Kampong Chai Chee	Kampong Chai Chee		1995-07-26	1,2,3,4,5	1			1993-09-01		
5	-73271	-107454	1.216667	103.766667	1:13:00N	103:46:00E	48NUG6278134510	NA48-10	P	PPL		SN	00				D				KAMPONGBUGIS	Kampong Bugis	Kampong Bugis	KAMPONGBUGIS	Kampong Bugis	Kampong Bugis		1995-07-26	1,2,3,4,5	1			1993-09-01		
5	-73270	-107453	1.35	103.65	1:21:00N	103:39:00E	48NUG4980649258	NA48-10	P	PPL		SN	00				D				KAMPONGBLUKANG	Kampong Blukang	Kampong Blukang	KAMPONGBLUKANG	Kampong Blukang	Kampong Blukang		1995-07-26	1,2,3,4,5	1			1993-09-01		
5	-73268	-107451	1.374167	103.684444	1:22:27N	103:41:04E	48NUG5364051927	NA48-10	P	PPLX		SN	00				N				KAMPONGBEREH	Kampong Bereh	Kampong Bereh	KAMPONGBEREH	Kampong Bereh	Kampong Bereh		1995-07-26	1,2,3,4,5	1			1993-09-01		
5	-73265	-107448	1.343889	103.921667	1:20:38N	103:55:18E	48NUG8003448567	NA48-10	P	PPLX		SN	00				N				KAMPONGBATAK	Kampong Batak	Kampong Batak	KAMPONGBATAK	Kampong Batak	Kampong Batak		1995-07-26	1,2,3,4,5	1			1993-09-01		
5	-73264	32260	1.418611	103.970278	1:25:07N	103:58:13E	48NUG8544656825	NA48-10	P	PPL		SN	00				N				KAMPONGBAHRU	Kampong Bahru	Kampong Bahru	KAMPONGBAHRU	Kampong Bahru	Kampong Bahru		1995-04-27	1,2,3,4,5	1			1995-03-09		
5	-73264	-107447	1.418611	103.970278	1:25:07N	103:58:13E	48NUG8544656825	NA48-10	P	PPL		SN	00				V				KAMPONGBAHARU	Kampong Baharu	Kampong Baharu	KAMPONGBAHARU	Kampong Baharu	Kampong Baharu		1995-04-27	1,2,3,4,5				1995-03-09		
5	-73263	-107446	1.266667	103.733333	1:16:00N	103:44:00E	48NUG5907440039	NA48-10	P	PPL		SN	00				D				KAMPONGBAHARU	Kampong Baharu	Kampong Baharu	KAMPONGBAHARU	Kampong Baharu	Kampong Baharu		1995-07-26	1,2,3,4,5	1			1993-09-01		
5	-73261	-107444	1.420556	104.079444	1:25:14N	104:04:46E	48NUG9759257035	NA48-10	P	PPL		SN	00				N				KAMPONGAYERSAMAK	Kampong Ayer Samak	Kampong Ayer Samak	KAMPONGAYERSAMAK	Kampong Ayer Samak	Kampong Ayer Samak		1995-04-27	1,2,3,4,5	1			1995-04-27		
5	-73518	-107767	1.331667	103.832778	1:19:54N	103:49:58E	48NUG7014347220	NA48-10	P	PPLX		SN	00				N				MOUNTPLEASANT	Mount Pleasant	Mount Pleasant	MOUNTPLEASANT	Mount Pleasant	Mount Pleasant		1995-07-26	1,2,3,4,5	1			1993-09-01		
5	-73503	-107747	1.330278	103.911389	1:19:49N	103:54:41E	48NUG7889047063	NA48-10	P	PPLX		SN	00				N				PERSEVERANCEESTATE	Perseverance Estate	Perseverance Estate	PERSEVERANCEESTATE	Perseverance Estate	Perseverance Estate		1995-07-26	1,2,3,4,5	1			1993-09-01		
5	-73619	-107897	1.363889	103.8575	1:21:50N	103:51:27E	48NUG7289650781	NA48-10	P	PPLX		SN	00				N				SERANGOONGARDENESTATE	Serangoon Garden Estate	Serangoon Garden Estate	SERANGOONGARDENESTATE	Serangoon Garden Estate	Serangoon Garden Estate		1995-07-26	1,2,3,4,5	1			1993-09-01		
5	-73234	-107401	1.355	103.765	1:21:18N	103:45:54E	48NUG6260349804	NA48-10	P	PPLX		SN	00				N				HUMEHEIGHTS	Hume Heights	Hume Heights	HUMEHEIGHTS	Hume Heights	Hume Heights		1995-07-26	1,2,3,4,5	1			1993-09-01		
5	-73233	-107400	1.34	103.693611	1:20:24N	103:41:37E	48NUG5465848149	NA48-10	P	PPLX		SN	00				V				HUATCHOEVILLAGE	Huat Choe Village	Huat Choe Village	HUATCHOEVILLAGE	Huat Choe Village	Huat Choe Village		1995-07-26	1,2,3,4,5				1993-09-01		
5	-73233	-107399	1.34	103.693611	1:20:24N	103:41:37E	48NUG5465848149	NA48-10	P	PPLX		SN	00				N				HUATCHOE	Huat Choe	Huat Choe	HUATCHOE	Huat Choe	Huat Choe		1995-07-26	1,2,3,4,5	1			1993-09-01		
5	-73230	-107395	1.339722	103.785556	1:20:23N	103:47:08E	48NUG6488948113	NA48-10	P	PPLX		SN	00				N				HONGKONGPARK	Hong Kong Park	Hong Kong Park	HONGKONGPARK	Hong Kong Park	Hong Kong Park		1995-07-26	1,2,3,4,5	1			1993-09-01		
5	-73229	-107394	1.359444	103.722778	1:21:34N	103:43:22E	48NUG5790550297	NA48-10	P	PPLX		SN	00				V				HONGKAHVILLAGE	Hong Kah Village	Hong Kah Village	HONGKAHVILLAGE	Hong Kah Village	Hong Kah Village		1995-07-26	1,2,3,4,5				1993-09-01		
5	-73229	-107393	1.359444	103.722778	1:21:34N	103:43:22E	48NUG5790550297	NA48-10	P	PPLX		SN	00				N				HONGKAH	Hong Kah	Hong Kah	HONGKAH	Hong Kah	Hong Kah		1995-07-26	1,2,3,4,5	1			1993-09-01		
5	-73228	-107392	1.311944	103.793333	1:18:43N	103:47:36E	48NUG6575345042	NA48-10	P	PPLX		SN	00				N				HOLLANDVILLAGE	Holland Village	Holland Village	HOLLANDVILLAGE	Holland Village	Holland Village		1995-07-26	1,2,3,4,5	1			1993-09-01		
5	-73228	-107390	1.311944	103.793333	1:18:43N	103:47:36E	48NUG6575345042	NA48-10	P	PPLX		SN	00				V				HOLLAND	Holland	Holland	HOLLAND	Holland	Holland		1995-07-26	1,2,3,4,5				1993-09-01		
5	-73175	-107318	1.444444	103.823889	1:26:40N	103:49:26E	48NUG6916059689	NA48-10	P	PPL		SN	00				N				CHONGPANG	Chong Pang	Chong Pang	CHONGPANG	Chong Pang	Chong Pang		1995-04-27	1,2,3,4,5	1			1995-04-26		
5	-73175	-107319	1.444444	103.823889	1:26:40N	103:49:26E	48NUG6916059689	NA48-10	P	PPL		SN	00				V				CHONGPANGVILLAGE	Chong Pang Village	Chong Pang Village	CHONGPANGVILLAGE	Chong Pang Village	Chong Pang Village		1995-04-27	1,2,3,4,5				1995-04-26		
5	-73164	-107935	1.36	103.891667	1:21:36N	103:53:30E	48NUG7669750349	NA48-10	P	PPL		SN	00				V				SOMAPAH	Somapah	Somapah	SOMAPAH	Somapah	Somapah		1995-07-26	1,2,3,4,5				1993-09-01		
5	-73164	-107302	1.36	103.891667	1:21:36N	103:53:30E	48NUG7669750349	NA48-10	P	PPL		SN	00				N				CHIAKENG	Chia Keng	Chia Keng	CHIAKENG	Chia Keng	Chia Keng		1995-07-26	1,2,3,4,5	1			1993-09-01		
5	-73164	-107303	1.36	103.891667	1:21:36N	103:53:30E	48NUG7669750349	NA48-10	P	PPL		SN	00				V				CHIAKENGVILLAGE	Chia Keng Village	Chia Keng Village	CHIAKENGVILLAGE	Chia Keng Village	Chia Keng Village		1995-07-26	1,2,3,4,5				1993-09-01		
5	-73457	-107683	1.318056	103.936944	1:19:05N	103:56:13E	48NUG8173345710	NA48-10	P	PPLX		SN	00				N				OPERAESTATE	Opera Estate	Opera Estate	OPERAESTATE	Opera Estate	Opera Estate		1995-07-26	1,2,3,4,5	1			1993-09-01		
5	-73774	-108091	1.283333	103.833333	1:17:00N	103:50:00E	48NUG7020241877	NA48-10	P	PPL		SN	00				D				TANJONGPAGAR	Tanjong Pagar	Tanjong Pagar	TANJONGPAGAR	Tanjong Pagar	Tanjong Pagar		1995-07-26	1,2,3,4,5	1			1993-09-01		
5	-73112	-107233	1.345278	103.865278	1:20:43N	103:51:55E	48NUG7376048723	NA48-10	P	PPLX		SN	00				N				BRADDELLHEIGHTSESTATE	Braddell Heights Estate	Braddell Heights Estate	BRADDELLHEIGHTSESTATE	Braddell Heights Estate	Braddell Heights Estate		1995-07-26	1,2,3,4,5	1			1993-09-01		
5	-73192	-107345	1.331389	103.7925	1:19:53N	103:47:33E	48NUG6566247192	NA48-10	P	PPLX		SN	00				N				EDENPARK	Eden Park	Eden Park	EDENPARK	Eden Park	Eden Park		1995-07-26	1,2,3,4,5	1			1993-09-01		
5	-73191	-107344	1.310556	103.821944	1:18:38N	103:49:19E	48NUG6893744887	NA48-10	P	PPLX		SN	00				N				EDENHALL	Eden Hall	Eden Hall	EDENHALL	Eden Hall	Eden Hall		1995-07-26	1,2,3,4,5	1			1993-09-01		
5	-73447	-107670	1.439444	103.731111	1:26:22N	103:43:52E	48NUG5883759141	NA48-10	P	PPLL		SN	00				N				NGKAYBOONESTATE	Ng Kay Boon Estate	Ng Kay Boon Estate	NGKAYBOONESTATE	Ng Kay Boon Estate	Ng Kay Boon Estate		1995-04-27	1,2,3,4,5	1			1995-04-25		
5	-73446	-107669	1.301667	103.788056	1:18:06N	103:47:17E	48NUG6516543906	NA48-10	P	PPLX		SN	00				N				NEPALPARK	Nepal Park	Nepal Park	NEPALPARK	Nepal Park	Nepal Park		1995-07-26	1,2,3,4,5	1			1993-09-01		
5	-73444	49932	1.402778	103.817778	1:24:10N	103:49:04E	48NUG6847855083	NA48-10	P	PPL		SN	00				V				NEESOON	Nee Soon	Nee Soon	NEESOON	Nee Soon	Nee Soon		1996-11-29	1,2,3,4,5,6				1995-07-26		
5	-73444	-107666	1.402778	103.817778	1:24:10N	103:49:04E	48NUG6847855083	NA48-10	P	PPL		SN	00				N		Nee Soon		NEESOONESTATE	Nee Soon Estate	Nee Soon Estate	NEESOONESTATE	Nee Soon Estate	Nee Soon Estate		1996-11-29	1,2,3,4,5,6	1			1995-07-26		
5	-73444	-107667	1.402778	103.817778	1:24:10N	103:49:04E	48NUG6847855083	NA48-10	P	PPL		SN	00				V				NEESOONVILLAGE	Nee Soon Village	Nee Soon Village	NEESOONVILLAGE	Nee Soon Village	Nee Soon Village		1996-11-29	1,2,3,4,5,6				1995-07-26		
5	-73153	-107288	1.384444	103.983056	1:23:04N	103:58:59E	48NUG8686653047	NA48-10	P	PPL		SN	00				N		Changi		CHANGIVILLAGE	Changi Village	Changi Village	CHANGIVILLAGE	Changi Village	Changi Village		1998-03-13	1,2,3,4,5,6	1			1993-09-01		
5	-73153	75213	1.384444	103.983056	1:23:04N	103:58:59E	48NUG8686653047	NA48-10	P	PPL		SN	00				V				CHANGI	Changi	Changi	CHANGI	Changi	Changi		1998-03-13	1,2,3,4,5,6				1993-09-01		
5	-73716	-108030	1.283333	103.832778	1:17:00N	103:49:58E	48NUG7014141877	NA48-10	P	PPLX		SN	00				N				TIONGBAHRUESTATE	Tiong Bahru Estate	Tiong Bahru Estate	TIONGBAHRUESTATE	Tiong Bahru Estate	Tiong Bahru Estate		1995-07-26	1,2,3,4,5	1			1993-09-01		
5	-73716	-108029	1.283333	103.832778	1:17:00N	103:49:58E	48NUG7014141877	NA48-10	P	PPLX		SN	00				V				TIONGBAHARU	Tiong Baharu	Tiong Baharu	TIONGBAHARU	Tiong Baharu	Tiong Baharu		1995-07-26	1,2,3,4,5				1993-09-01		
5	-73710	-108023	1.418056	103.701944	1:25:05N	103:42:07E	48NUG5559056779	NA48-10	P	PPL		SN	00				V				THONGHOE	Thong Hoe	Thong Hoe	THONGHOE	Thong Hoe	Thong Hoe		1996-11-29	1,2,3,4,5				1995-07-26		
5	-73710	31276	1.418056	103.701944	1:25:05N	103:42:07E	48NUG5559056779	NA48-10	P	PPL		SN	00				N		Thong Hoe		THONGHOEVILLAGE	Thong Hoe Village	Thong Hoe Village	THONGHOEVILLAGE	Thong Hoe Village	Thong Hoe Village		1996-11-29	1,2,3,4,5	1			1995-07-26		
5	-73709	-108022	1.349167	103.843611	1:20:57N	103:50:37E	48NUG7135049154	NA48-10	P	PPLX		SN	00				N				THOMSON	Thomson	Thomson	THOMSON	Thomson	Thomson		1995-04-26	1,2,3,4,5	1			1995-04-26		
5	-73709	64595	1.349167	103.843611	1:20:57N	103:50:37E	48NUG7135049154	NA48-10	P	PPLX		SN	00				V				THOMSONVILLAGE	Thomson Village	Thomson Village	THOMSONVILLAGE	Thomson Village	Thomson Village		1995-04-26	1,2,3,4,5				1995-04-26		
5	-73709	64597	1.349167	103.843611	1:20:57N	103:50:37E	48NUG7135049154	NA48-10	P	PPLX		SN	00				V				THOMSONRISEESTATE	Thomson Rise Estate	Thomson Rise Estate	THOMSONRISEESTATE	Thomson Rise Estate	Thomson Rise Estate		1995-04-26	1,2,3,4,5				1995-04-26		
5	-73053	-107150	1.309444	103.83	1:18:34N	103:49:48E	48NUG6983344764	NA48-10	P	PPLX		SN	00				N				ARDMOREFLATS	Ardmore Flats	Ardmore Flats	ARDMOREFLATS	Ardmore Flats	Ardmore Flats		1995-07-26	1,2,3,4,5	1			1993-09-01		
5	-73048	-107144	1.404444	103.706667	1:24:16N	103:42:24E	48NUG5611555273	NA48-10	P	PPL		SN	00				V				AMAKENGVILLAGE	Ama Keng Village	Ama Keng Village	AMAKENGVILLAGE	Ama Keng Village	Ama Keng Village		1996-11-29	1,2,3,4,5				1995-04-26		
5	-73048	-107143	1.404444	103.706667	1:24:16N	103:42:24E	48NUG5611555273	NA48-10	P	PPL		SN	00				N				AMAKENG	Ama Keng	Ama Keng	AMAKENG	Ama Keng	Ama Keng		1996-11-29	1,2,3,4,5	1			1995-04-26		
5	-73076	-107178	1.35	103.65	1:21:00N	103:39:00E	48NUG4980649258	NA48-10	P	PPL		SN	00				D				BANTATENGEH	Banta Tengeh	Banta Tengeh	BANTATENGEH	Banta Tengeh	Banta Tengeh		1995-07-26	1,2,3,4,5	1			1993-09-01		
5	-73038	-107129	1.331667	103.812222	1:19:54N	103:48:44E	48NUG6785647221	NA48-10	P	PPLX		SN	00				N				ADAMPARK	Adam Park	Adam Park	ADAMPARK	Adam Park	Adam Park		1995-07-26	1,2,3,4,5	1			1993-09-01		
5	-73127	-107251	1.444444	103.851111	1:26:40N	103:51:04E	48NUG7218959687	NA48-10	P	PPLL		SN	00				D				BUKITSEMBAWANGESTATE	Bukit Sembawang Estate	Bukit Sembawang Estate	BUKITSEMBAWANGESTATE	Bukit Sembawang Estate	Bukit Sembawang Estate		1995-07-26	1,2,3,4,5	1			1993-09-01		
5	-73126	-107250	1.454444	103.840833	1:27:16N	103:50:27E	48NUG7104660793	NA48-10	P	PPLL		SN	00				D				BUKITSEMBAWANGESTATE	Bukit Sembawang Estate	Bukit Sembawang Estate	BUKITSEMBAWANGESTATE	Bukit Sembawang Estate	Bukit Sembawang Estate		1995-07-26	1,2,3,4,5	1			1993-09-01		
5	-73418	-107634	1.314444	103.785	1:18:52N	103:47:06E	48NUG6482645319	NA48-10	P	PPLX		SN	00				N				MCMAHONPARK	McMahon Park	McMahon Park	MCMAHONPARK	McMahon Park	McMahon Park		1995-07-26	1,2,3,4,5	1			1993-09-01		
5	-73631	-107913	1.334167	103.952222	1:20:03N	103:57:08E	48NUG8343347491	NA48-10	P	PPLX		SN	00				V				SIMPANGBEDOK	Simpang Bedok	Simpang Bedok	SIMPANGBEDOK	Simpang Bedok	Simpang Bedok		1995-07-26	1,2,3,4,5				1993-09-01		
5	-73631	-107914	1.334167	103.952222	1:20:03N	103:57:08E	48NUG8343347491	NA48-10	P	PPLX		SN	00				N				SIMPANGBEDOKVILLAGE	Simpang Bedok Village	Simpang Bedok Village	SIMPANGBEDOKVILLAGE	Simpang Bedok Village	Simpang Bedok Village		1995-07-26	1,2,3,4,5	1			1993-09-01		
5	-73353	-107545	1.383333	103.666667	1:23:00N	103:40:00E	48NUG5166352942	NA48-10	P	PPL		SN	00				D				KAMPONGWAKDULAH	Kampong Wak Dulah	Kampong Wak Dulah	KAMPONGWAKDULAH	Kampong Wak Dulah	Kampong Wak Dulah		1995-07-26	1,2,3,4,5	1			1995-06-21		
5	-73353	-107463	1.383333	103.666667	1:23:00N	103:40:00E	48NUG5166352942	NA48-10	P	PPL		SN	00				V				KAMPONGDULAH	Kampong Dulah	Kampong Dulah	KAMPONGDULAH	Kampong Dulah	Kampong Dulah		1995-07-26	1,2,3,4,5				1995-06-21		
5	-73352	-107544	1.283333	103.716667	1:17:00N	103:43:00E	48NUG5722141883	NA48-10	P	PPL		SN	00				D				KAMPONGWAKBECHIK	Kampong Wak Bechik	Kampong Wak Bechik	KAMPONGWAKBECHIK	Kampong Wak Bechik	Kampong Wak Bechik		1995-07-26	1,2,3,4,5	1			1993-09-01		
5	-73351	-107542	1.431389	104.059722	1:25:53N	104:03:35E	48NUG9539858233	NA48-10	P	PPL		SN	00				N				KAMPONGUNUM	Kampong Unum	Kampong Unum	KAMPONGUNUM	Kampong Unum	Kampong Unum		1995-04-27	1,2,3,4,5	1			1995-04-26		
5	-73351	-107541	1.431389	104.059722	1:25:53N	104:03:35E	48NUG9539858233	NA48-10	P	PPL		SN	00				V				KAMPONGUNAM	Kampong Unam	Kampong Unam	KAMPONGUNAM	Kampong Unam	Kampong Unam		1995-04-27	1,2,3,4,5				1995-04-26		
5	-73350	-107540	1.346111	103.745	1:20:46N	103:44:42E	48NUG6037748822	NA48-10	P	PPLX		SN	00				N				KAMPONGULUPANDAN	Kampong Ulu Pandan	Kampong Ulu Pandan	KAMPONGULUPANDAN	Kampong Ulu Pandan	Kampong Ulu Pandan		1995-07-26	1,2,3,4,5	1			1993-09-01		
5	-73348	-107538	1.316667	103.9	1:19:00N	103:54:00E	48NUG7762245559	NA48-10	P	PPL		SN	00				D				KAMPONGUBI	Kampong Ubi	Kampong Ubi	KAMPONGUBI	Kampong Ubi	Kampong Ubi		1995-07-26	1,2,3,4,5	1			1993-09-01		
5	-73346	-107536	1.39	103.876389	1:23:24N	103:52:35E	48NUG7499953667	NA48-10	P	PPL		SN	00				N				KAMPONGTONGKANGPECHAH	Kampong Tongkang Pechah	Kampong Tongkang Pechah	KAMPONGTONGKANGPECHAH	Kampong Tongkang Pechah	Kampong Tongkang Pechah		1995-04-27	1,2,3,4,5	1			1995-04-27		
5	-73573	-107840	1.413611	103.975556	1:24:49N	103:58:32E	48NUG8603356272	NA48-10	P	PPLL		SN	00				V				SAMHINESTATE	Sam Hin Estate	Sam Hin Estate	SAMHINESTATE	Sam Hin Estate	Sam Hin Estate		1995-04-27	1,2,3,4,5				1995-03-15		
5	-73573	-107839	1.413611	103.975556	1:24:49N	103:58:32E	48NUG8603356272	NA48-10	P	PPLL		SN	00				N				SAMHENGESTATE	Sam Heng Estate	Sam Heng Estate	SAMHENGESTATE	Sam Heng Estate	Sam Heng Estate		1995-04-27	1,2,3,4,5	1			1995-03-15		
5	-73313	-107525	1.381111	103.894167	1:22:52N	103:53:39E	48NUG7697652683	NA48-10	P	PPL		SN	00				V				KAMPONGSUNGIPINANG	Kampong Sungi Pinang	Kampong Sungi Pinang	KAMPONGSUNGIPINANG	Kampong Sungi Pinang	Kampong Sungi Pinang		1995-04-27	1,2,3,4,5				1995-04-26		
5	-73313	-107499	1.381111	103.894167	1:22:52N	103:53:39E	48NUG7697652683	NA48-10	P	PPL		SN	00				N				KAMPONGPINANG	Kampong Pinang	Kampong Pinang	KAMPONGPINANG	Kampong Pinang	Kampong Pinang		1995-04-27	1,2,3,4,5	1			1995-04-26		
5	-73310	-107496	1.233333	103.766667	1:14:00N	103:46:00E	48NUG6278236352	NA48-10	P	PPL		SN	00				D				KAMPONGPERIGIPIAU	Kampong Perigi Piau	Kampong Perigi Piau	KAMPONGPERIGIPIAU	Kampong Perigi Piau	Kampong Perigi Piau		1995-07-26	1,2,3,4,5	1			1993-09-01		
5	-73259	-107442	1.283333	103.716667	1:17:00N	103:43:00E	48NUG5722141883	NA48-10	P	PPL		SN	00				D				KAMPONGAYERLIMAU	Kampong Ayer Limau	Kampong Ayer Limau	KAMPONGAYERLIMAU	Kampong Ayer Limau	Kampong Ayer Limau		1995-07-26	1,2,3,4,5	1			1993-09-01		
5	-73257	-107440	1.366667	103.65	1:22:00N	103:39:00E	48NUG4980751100	NA48-10	P	PPL		SN	00				D				KAMPONGAYERBAJAU	Kampong Ayer Bajau	Kampong Ayer Bajau	KAMPONGAYERBAJAU	Kampong Ayer Bajau	Kampong Ayer Bajau		1995-07-26	1,2,3,4,5	1			1993-09-01		
5	-73240	-107409	1.397222	103.871944	1:23:50N	103:52:19E	48NUG7450554465	NA48-10	P	PPL		SN	00				N				JALANKAYU	Jalan Kayu	Jalan Kayu	JALANKAYU	Jalan Kayu	Jalan Kayu		1995-04-27	1,2,3,4,5	1			1995-04-26		
5	-73240	-107335	1.397222	103.871944	1:23:50N	103:52:19E	48NUG7450554465	NA48-10	P	PPL		SN	00				V				DIXIL	Dixil	Dixil	DIXIL	Dixil	Dixil		1995-04-27	1,2,3,4,5				1995-04-26		
5	-73309	-107495	1.403333	103.85	1:24:12N	103:51:00E	48NUG7206355142	NA48-10	P	PPL		SN	00				N				KAMPONGPENGKALANPETAI	Kampong Pengkalan Petai	Kampong Pengkalan Petai	KAMPONGPENGKALANPETAI	Kampong Pengkalan Petai	Kampong Pengkalan Petai		1995-04-27	1,2,3,4,5	1			1995-04-27		
5	-73308	-107494	1.409444	104.0725	1:24:34N	104:04:21E	48NUG9681955807	NA48-10	P	PPL		SN	00				N				KAMPONGPENGKALANPAKAU	Kampong Pengkalan Pakau	Kampong Pengkalan Pakau	KAMPONGPENGKALANPAKAU	Kampong Pengkalan Pakau	Kampong Pengkalan Pakau		1995-04-27	1,2,3,4,5	1			1995-04-27		
5	-73305	-107491	1.429167	104.046944	1:25:45N	104:02:49E	48NUG9397757988	NA48-10	P	PPL		SN	00				N				KAMPONGPASIRMERAH	Kampong Pasir Merah	Kampong Pasir Merah	KAMPONGPASIRMERAH	Kampong Pasir Merah	Kampong Pasir Merah		1995-04-27	1,2,3,4,5	1			1995-04-27		
5	-73303	-107489	1.409167	104.032778	1:24:33N	104:01:58E	48NUG9240055778	NA48-10	P	PPL		SN	00				N				KAMPONGPAHANG	Kampong Pahang	Kampong Pahang	KAMPONGPAHANG	Kampong Pahang	Kampong Pahang		1995-04-27	1,2,3,4,5	1			1995-04-27		
5	-73302	-107689	1.33	103.966667	1:19:48N	103:58:00E	48NUG8504047029	NA48-10	P	PPLX		SN	00				V				PADANGTERBAKARVILLAGE	Padang Terbakar Village	Padang Terbakar Village	PADANGTERBAKARVILLAGE	Padang Terbakar Village	Padang Terbakar Village		1995-07-26	1,2,3,4,5				1993-09-01		
5	-73302	-107488	1.33	103.966667	1:19:48N	103:58:00E	48NUG8504047029	NA48-10	P	PPLX		SN	00				N				KAMPONGPADANGTERBAKAR	Kampong Padang Terbakar	Kampong Padang Terbakar	KAMPONGPADANGTERBAKAR	Kampong Padang Terbakar	Kampong Padang Terbakar		1995-07-26	1,2,3,4,5	1			1993-09-01		
5	-73300	-107486	1.3	103.783333	1:18:00N	103:47:00E	48NUG6464043722	NA48-10	P	PPLX		SN	00				D				KAMPONGOCARROLLSCOTT	Kampong O’Carroll Scott	Kampong O'Carroll Scott	KAMPONGOCARROLLSCOTT	Kampong O’Carroll Scott	Kampong O'Carroll Scott		1995-07-26	1,2,3,4,5	1			1993-09-01		
5	-73298	-107484	1.408611	103.979444	1:24:31N	103:58:46E	48NUG8646655719	NA48-10	P	PPL		SN	00				N				KAMPONGMELAYU	Kampong Melayu	Kampong Melayu	KAMPONGMELAYU	Kampong Melayu	Kampong Melayu		1995-04-27	1,2,3,4,5	1			1995-04-26		
5	-73298	-107481	1.408611	103.979444	1:24:31N	103:58:46E	48NUG8646655719	NA48-10	P	PPL		SN	00				V				KAMPONGMALAYU	Kampong Malayu	Kampong Malayu	KAMPONGMALAYU	Kampong Malayu	Kampong Malayu		1995-04-27	1,2,3,4,5				1995-04-26		
5	-73297	-107483	1.440833	103.765278	1:26:27N	103:45:55E	48NUG6263959293	NA48-10	P	PPL		SN	00				N				KAMPONGMANDAIKECHIL	Kampong Mandai Kechil	Kampong Mandai Kechil	KAMPONGMANDAIKECHIL	Kampong Mandai Kechil	Kampong Mandai Kechil		1995-04-27	1,2,3,4,5	1			1995-04-27		
5	-73294	-107479	1.377778	103.959444	1:22:40N	103:57:34E	48NUG8423952311	NA48-10	P	PPL		SN	00				N				KAMPONGLOYANG	Kampong Loyang	Kampong Loyang	KAMPONGLOYANG	Kampong Loyang	Kampong Loyang		1995-04-27	1,2,3,4,5	1			1995-04-26		
5	-73294	-107478	1.377778	103.959444	1:22:40N	103:57:34E	48NUG8423952311	NA48-10	P	PPL		SN	00				V				KAMPONGLOYA	Kampong Loya	Kampong Loya	KAMPONGLOYA	Kampong Loya	Kampong Loya		1995-04-27	1,2,3,4,5				1995-04-26		
5	-73292	-107476	1.404444	104.033333	1:24:16N	104:02:00E	48NUG9246155256	NA48-10	P	PPL		SN	00				N				KAMPONGLADANG	Kampong Ladang	Kampong Ladang	KAMPONGLADANG	Kampong Ladang	Kampong Ladang		1995-04-27	1,2,3,4,5	1			1995-04-27		
5	-73288	-107472	1.266667	103.833333	1:16:00N	103:50:00E	48NUG7020240034	NA48-10	P	PPL		SN	00				D				KAMPONGKOPIT	Kampong Kopit	Kampong Kopit	KAMPONGKOPIT	Kampong Kopit	Kampong Kopit		1995-07-26	1,2,3,4,5	1			1993-09-01		
5	-73286	-107470	1.323056	103.928333	1:19:23N	103:55:42E	48NUG8077546263	NA48-10	P	PPLX		SN	00				N				KAMPONGKEMBANGAN	Kampong Kembangan	Kampong Kembangan	KAMPONGKEMBANGAN	Kampong Kembangan	Kampong Kembangan		1995-07-26	1,2,3,4,5	1			1993-09-01		
5	-73286	-107561	1.323056	103.928333	1:19:23N	103:55:42E	48NUG8077546263	NA48-10	P	PPLX		SN	00				V				KEMBANGAN	Kembangan	Kembangan	KEMBANGAN	Kembangan	Kembangan		1995-07-26	1,2,3,4,5				1993-09-01		
5	-73285	-107469	1.366667	103.866667	1:22:00N	103:52:00E	48NUG7391651088	NA48-10	P	PPL		SN	00				D				KAMPONGKEBUNBAHARU	Kampong Kebun Baharu	Kampong Kebun Baharu	KAMPONGKEBUNBAHARU	Kampong Kebun Baharu	Kampong Kebun Baharu		1995-07-26	1,2,3,4,5	1			1993-09-01		
5	-73284	-107468	1.401111	103.958889	1:24:04N	103:57:32E	48NUG8417854891	NA48-10	P	PPL		SN	00				N				KAMPONGJELUTONG	Kampong Jelutong	Kampong Jelutong	KAMPONGJELUTONG	Kampong Jelutong	Kampong Jelutong		1995-04-27	1,2,3,4,5	1			1995-04-27		
5	-73486	-107723	1.353889	103.890556	1:21:14N	103:53:26E	48NUG7657349674	NA48-10	P	PPLX		SN	00				N				PAYALEBAR	Paya Lebar	Paya Lebar	PAYALEBAR	Paya Lebar	Paya Lebar		1996-11-29	1,2,3,4,5	1			1993-09-01		
5	-73482	-107713	1.292778	103.770833	1:17:34N	103:46:15E	48NUG6324942924	NA48-10	P	PPLX		SN	00				N				PASIRPANJANG	Pasir Panjang	Pasir Panjang	PASIRPANJANG	Pasir Panjang	Pasir Panjang		1996-11-29	1,2,3,4,5,6	1			1994-07-21		
5	-73482	-107717	1.292778	103.770833	1:17:34N	103:46:15E	48NUG6324942924	NA48-10	P	PPLX		SN	00				V				PASIRPANJANGVILLAGE	Pasir Panjang Village	Pasir Panjang Village	PASIRPANJANGVILLAGE	Pasir Panjang Village	Pasir Panjang Village		1996-11-29	1,2,3,4,5,6				1994-07-21		
5	-73203	-107358	1.313611	103.929444	1:18:49N	103:55:46E	48NUG8089845219	NA48-10	P	PPLX		SN	00				N				FRANKELESTATE	Frankel Estate	Frankel Estate	FRANKELESTATE	Frankel Estate	Frankel Estate		1995-07-26	1,2,3,4,5	1			1993-09-01		
5	-73142	-107273	1.280556	103.788056	1:16:50N	103:47:17E	48NUG6516441572	NA48-10	P	PPLL		SN	00				V				BUONAVISTAVILLAGE	Buona Vista Village	Buona Vista Village	BUONAVISTAVILLAGE	Buona Vista Village	Buona Vista Village		1996-11-29	1,2,3,4,5				1993-09-01		
5	-73142	-107272	1.280556	103.788056	1:16:50N	103:47:17E	48NUG6516441572	NA48-10	P	PPLL		SN	00				N				BUONAVISTA	Buona Vista	Buona Vista	BUONAVISTA	Buona Vista	Buona Vista		1996-11-29	1,2,3,4,5	1			1993-09-01		
5	-73135	-107263	1.374444	103.717778	1:22:28N	103:43:04E	48NUG5735051956	NA48-10	P	PPLX		SN	00				N				BULIM	Bulim	Bulim	BULIM	Bulim	Bulim		1996-11-29	1,2,3,4,5	1			1993-09-01		
5	-73135	-107264	1.374444	103.717778	1:22:28N	103:43:04E	48NUG5735051956	NA48-10	P	PPLX		SN	00				V				BULIMVILLAGE	Bulim Village	Bulim Village	BULIMVILLAGE	Bulim Village	Bulim Village		1996-11-29	1,2,3,4,5				1993-09-01		
5	-73760	-108085	1.389722	103.853889	1:23:23N	103:51:14E	48NUG7249553637	NA48-10	P	PPLL		SN	00				N				YIOCHUKANGESTATE	Yio Chu Kang Estate	Yio Chu Kang Estate	YIOCHUKANGESTATE	Yio Chu Kang Estate	Yio Chu Kang Estate		1995-04-27	1,2,3,4,5	1			1995-04-25		
5	-73759	-108086	1.391111	103.851389	1:23:28N	103:51:05E	48NUG7221753791	NA48-10	P	PPL		SN	00				V				YIOCHUKANGVILLAGE	Yio Chu Kang Village	Yio Chu Kang Village	YIOCHUKANGVILLAGE	Yio Chu Kang Village	Yio Chu Kang Village		1995-04-27	1,2,3,4,5				1995-04-26		
5	-73759	-108084	1.391111	103.851389	1:23:28N	103:51:05E	48NUG7221753791	NA48-10	P	PPL		SN	00				N				YIOCHUKANG	Yio Chu Kang	Yio Chu Kang	YIOCHUKANG	Yio Chu Kang	Yio Chu Kang		1995-04-27	1,2,3,4,5	1			1995-04-26		
5	-73752	-108075	1.356944	103.824722	1:21:25N	103:49:29E	48NUG6924850015	NA48-10	P	PPLX		SN	00				N				WINDSORPARKESTATE	Windsor Park Estate	Windsor Park Estate	WINDSORPARKESTATE	Windsor Park Estate	Windsor Park Estate		1995-07-26	1,2,3,4,5	1			1993-09-01		
5	-73745	-108066	1.333056	103.81	1:19:59N	103:48:36E	48NUG6760947375	NA48-10	P	PPLX		SN	00				N				WATTENPARK	Watten Park	Watten Park	WATTENPARK	Watten Park	Watten Park		1995-07-26	1,2,3,4,5	1			1993-09-01		
5	-73740	-108061	1.320278	103.802222	1:19:13N	103:48:08E	48NUG6674345963	NA48-10	P	PPLX		SN	00				N				VICTORIAPARK	Victoria Park	Victoria Park	VICTORIAPARK	Victoria Park	Victoria Park		1995-07-26	1,2,3,4,5	1			1993-09-01		
5	23440	28252	1.341111	103.956111	1:20:28N	103:57:22E	48NUG8386648258	NA48-10	P	PPLX		SN	00				V				SIMEIESTATE	Simei Estate	Simei Estate	SIMEIESTATE	Simei Estate	Simei Estate		1995-07-26	1,2,3				1995-07-26		
5	23440	75336	1.341111	103.956111	1:20:28N	103:57:22E	48NUG8386648258	NA48-10	P	PPLX		SN	00				V				SIMEI	Simei	Simei	SIMEI	Simei	Simei		1995-07-26	1,2,3				1995-07-26		
5	23440	51946	1.341111	103.956111	1:20:28N	103:57:22E	48NUG8386648258	NA48-10	P	PPLX		SN	00				N				SIMEINEWTOWN	Simei New Town	Simei New Town	SIMEINEWTOWN	Simei New Town	Simei New Town		1995-07-26	1,2,3	1			1995-07-26		
5	23448	28261	1.327778	103.860833	1:19:40N	103:51:39E	48NUG7326546789	NA48-10	P	PPL		SN	00				N				SAINTMICHAELSESTATE	Saint Michael’s Estate	Saint Michael's Estate	SAINTMICHAELSESTATE	Saint Michael’s Estate	Saint Michael's Estate		1994-07-21	1,2,3,4,5	1			1994-07-21		
5	22477	27191	1.350278	103.722778	1:21:01N	103:43:22E	48NUG5790549284	NA48-10	P	PPLL		SN	00				V				JURONGWEST	Jurong West	Jurong West	JURONGWEST	Jurong West	Jurong West		1995-07-26	1,2,3,4,5				1995-07-26		
5	22477	67308	1.350278	103.722778	1:21:01N	103:43:22E	48NUG5790549284	NA48-10	P	PPLL		SN	00				N		Jurong West		JURONGWESTNEWTOWN	Jurong West New Town	Jurong West New Town	JURONGWESTNEWTOWN	Jurong West New Town	Jurong West New Town		1995-07-26	1,2,3,4,5	1			1995-07-26		
5	22479	27193	1.3375	103.909167	1:20:15N	103:54:33E	48NUG7864347861	NA48-10	P	PPLX		SN	00				N				KAKIBUKITESTATE	Kaki Bukit Estate	Kaki Bukit Estate	KAKIBUKITESTATE	Kaki Bukit Estate	Kaki Bukit Estate		1995-07-26	1,2,3,4,5	1			1993-09-01		
5	22453	27163	1.289167	103.823333	1:17:21N	103:49:24E	48NUG6909042522	NA48-10	P	PPLX		SN	00				N				HENDERSONESTATE	Henderson Estate	Henderson Estate	HENDERSONESTATE	Henderson Estate	Henderson Estate		1995-07-26	1,2,3,4,5	1			1993-09-01		
5	22457	27167	1.356667	103.890833	1:21:24N	103:53:27E	48NUG7660449981	NA48-10	P	PPLX		SN	00				N				HOUGANGNEWTOWN	Hougang New Town	Hougang New Town	HOUGANGNEWTOWN	Hougang New Town	Hougang New Town		1995-07-26	1,2,3,4,5	1			1993-09-01		
5	27566	33348	1.335278	103.698889	1:20:07N	103:41:56E	48NUG5524547627	NA48-10	P	PPLX		SN	00				D				BOONLAYRESETTLEMENTAREA	Boon Lay Resettlement Area	Boon Lay Resettlement Area	BOONLAYRESETTLEMENTAREA	Boon Lay Resettlement Area	Boon Lay Resettlement Area		1995-04-26	1,2	1			1995-04-26		
5	23549	28388	1.332222	103.965833	1:19:56N	103:57:57E	48NUG8494847275	NA48-10	P	PPLX		SN	00				N				XILINESTATE	Xilin Estate	Xilin Estate	XILINESTATE	Xilin Estate	Xilin Estate		1995-07-26	1,2,3,4,5	1			1993-09-01		
5	26478	31990	1.410556	103.776944	1:24:38N	103:46:37E	48NUG6393555945	NA48-10	P	PPL		SN	00				V				SUNGAIMANDAI	Sungai Mandai	Sungai Mandai	SUNGAIMANDAI	Sungai Mandai	Sungai Mandai		1995-07-26	1				1995-07-26		
5	26478	31989	1.410556	103.776944	1:24:38N	103:46:37E	48NUG6393555945	NA48-10	P	PPL		SN	00				N		Sungai Mandai		SUNGAIMANDAIVILLAGE	Sungai Mandai Village	Sungai Mandai Village	SUNGAIMANDAIVILLAGE	Sungai Mandai Village	Sungai Mandai Village		1995-07-26	1	1			1995-07-26		
5	30587	37189	1.3475	103.899722	1:20:51N	103:53:59E	48NUG7759348967	NA48-10	P	PPLX		SN	00				N				TAIKHENGGARDENS	Tai Kheng Gardens	Tai Kheng Gardens	TAIKHENGGARDENS	Tai Kheng Gardens	Tai Kheng Gardens		1995-07-26	1	1			1993-09-01		
5	26531	32050	1.383333	103.828611	1:23:00N	103:49:43E	48NUG6968252932	NA48-10	P	PPLL		SN	00				N				TEACHERSHOUSINGESTATE	Teacher’s Housing Estate	Teacher's Housing Estate	TEACHERSHOUSINGESTATE	Teacher’s Housing Estate	Teacher's Housing Estate		1995-04-27	1	1			1995-04-25		
5	26532	32052	1.398889	103.828611	1:23:56N	103:49:43E	48NUG6968354652	NA48-10	P	PPLL		SN	00				N				BUKITSEMBAWANGESTATE	Bukit Sembawang Estate	Bukit Sembawang Estate	BUKITSEMBAWANGESTATE	Bukit Sembawang Estate	Bukit Sembawang Estate		1995-04-27	1	1			1995-04-25		
5	30329	36808	1.319444	103.754722	1:19:10N	103:45:17E	48NUG6145745873	NA48-10	P	PPLX		SN	00				N				HONGLEONGGARDEN	Hong Leong Garden	Hong Leong Garden	HONGLEONGGARDEN	Hong Leong Garden	Hong Leong Garden		1995-07-26	1	1			1993-09-01		
5	30331	36810	1.308889	103.768889	1:18:32N	103:46:08E	48NUG6303344705	NA48-10	P	PPLX		SN	00				N				SUSSEXESTATE	Sussex Estate	Sussex Estate	SUSSEXESTATE	Sussex Estate	Sussex Estate		1995-07-26	1	1			1993-09-01		
5	26789	32350	1.375556	103.897222	1:22:32N	103:53:50E	48NUG7731652069	NA48-10	P	PPL		SN	00				N				SERANGOON	Serangoon	Serangoon	SERANGOON	Serangoon	Serangoon		1995-04-27	1	1			1995-03-09		
5	26790	32352	1.376111	103.901667	1:22:34N	103:54:06E	48NUG7781152130	NA48-10	P	PPL		SN	00				N				KANGKAR	Kangkar	Kangkar	KANGKAR	Kangkar	Kangkar		1995-04-27	1	1			1995-03-09		
5	41068	51904	1.294167	103.8025	1:17:39N	103:48:09E	48NUG6677243076	NA48-10	P	PPLX		SN	00				N		Queenstown		QUEENSTOWNESTATE	Queenstown Estate	Queenstown Estate	QUEENSTOWNESTATE	Queenstown Estate	Queenstown Estate		1996-11-29	1,2,3,4,5,6	1			1995-07-26		
5	41068	51905	1.294167	103.8025	1:17:39N	103:48:09E	48NUG6677243076	NA48-10	P	PPLX		SN	00				V				QUEENSTOWNNEWTOWN	Queenstown New Town	Queenstown New Town	QUEENSTOWNNEWTOWN	Queenstown New Town	Queenstown New Town		1996-11-29	1,2,3,4,5,6				1995-07-26		
5	41068	75314	1.294167	103.8025	1:17:39N	103:48:09E	48NUG6677243076	NA48-10	P	PPLX		SN	00				V				QUEENSTOWN	Queenstown	Queenstown	QUEENSTOWN	Queenstown	Queenstown		1996-11-29	1,2,3,4,5,6				1995-07-26		
5	22313	27001	1.346389	103.853056	1:20:47N	103:51:11E	48NUG7240048847	NA48-10	P	PPLX		SN	00				N				BISHANNEWTOWN	Bishan New Town	Bishan New Town	BISHANNEWTOWN	Bishan New Town	Bishan New Town		1995-07-26	1,2,3,4,5	1			1993-09-01		
5	22317	261484	1.351667	103.762778	1:21:06N	103:45:46E	48NUG6235549435	NA48-10	P	PPLX		SN	00				V				BUKITBATOK	Bukit Batok	Bukit Batok	BUKITBATOK	Bukit Batok	Bukit Batok		1996-11-29	1,2,3,4,5,6				1993-09-01		
5	22317	27005	1.351667	103.762778	1:21:06N	103:45:46E	48NUG6235549435	NA48-10	P	PPLX		SN	00				N				BUKITBATOKNEWTOWN	Bukit Batok New Town	Bukit Batok New Town	BUKITBATOKNEWTOWN	Bukit Batok New Town	Bukit Batok New Town		1996-11-29	1,2,3,4,5,6	1			1993-09-01		
5	23458	75370	1.349167	103.949722	1:20:57N	103:56:59E	48NUG8315649149	NA48-10	P	PPLX		SN	00				V				TAMPINES	Tampines	Tampines	TAMPINES	Tampines	Tampines		1995-07-26	1,2,3,4,5				1995-07-26		
5	23458	28272	1.349167	103.949722	1:20:57N	103:56:59E	48NUG8315649149	NA48-10	P	PPLX		SN	00				N				TAMPINESNEWTOWN	Tampines New Town	Tampines New Town	TAMPINESNEWTOWN	Tampines New Town	Tampines New Town		1995-07-26	1,2,3,4,5	1			1995-07-26		
5	23466	28280	1.301389	103.7975	1:18:05N	103:47:51E	48NUG6621643875	NA48-10	P	PPL		SN	00				N				TANGLINHALT	Tanglin Halt	Tanglin Halt	TANGLINHALT	Tanglin Halt	Tanglin Halt		1994-07-21	1,2,3,4	1			1994-07-21		
5	30422	36951	1.304722	103.847222	1:18:17N	103:50:50E	48NUG7174944241	NA48-10	P	PPLX		SN	00				N				MOUNTEMILYPARK	Mount Emily Park	Mount Emily Park	MOUNTEMILYPARK	Mount Emily Park	Mount Emily Park		1995-07-26	1	1			1993-09-01		
5	30403	75192	1.291111	103.829444	1:17:28N	103:49:46E	48NUG6977042737	NA48-10	P	PPLX		SN	00				N				DELTAESTATE	Delta Estate	Delta Estate	DELTAESTATE	Delta Estate	Delta Estate		1995-07-26	1	1			1995-07-26		
5	30403	75191	1.291111	103.829444	1:17:28N	103:49:46E	48NUG6977042737	NA48-10	P	PPLX		SN	00				V				HAVELOCKESTATE	Havelock Estate	Havelock Estate	HAVELOCKESTATE	Havelock Estate	Havelock Estate		1995-07-26	1				1995-07-26		
5	30403	36916	1.291111	103.829444	1:17:28N	103:49:46E	48NUG6977042737	NA48-10	P	PPLX		SN	00				V				HAVELOCKDELTAESTATE	Havelock/Delta Estate	Havelock/Delta Estate	HAVELOCKDELTAESTATE	Havelock/Delta Estate	Havelock/Delta Estate		1995-07-26	1				1995-07-26		
5	30406	36923	1.278889	103.826389	1:16:44N	103:49:35E	48NUG6943041386	NA48-10	P	PPLX		SN	00				N				KAMPONGSILATESTATE	Kampong Silat Estate	Kampong Silat Estate	KAMPONGSILATESTATE	Kampong Silat Estate	Kampong Silat Estate		1995-07-26	1	1			1993-09-01		
5	30634	37261	1.304167	103.924722	1:18:15N	103:55:29E	48NUG8037244175	NA48-10	P	PPLX		SN	00				N				MARINEPARADEESTATE	Marine Parade Estate	Marine Parade Estate	MARINEPARADEESTATE	Marine Parade Estate	Marine Parade Estate		1995-07-26	1	1			1993-09-01		
5	41057	51885	1.315833	103.764722	1:18:57N	103:45:53E	48NUG6257045473	NA48-10	P	PPLX		SN	00				N		Clementi		CLEMENTINEWTOWN	Clementi New Town	Clementi New Town	CLEMENTINEWTOWN	Clementi New Town	Clementi New Town		1995-07-26	1,2,3,4,5	1			1995-07-26		
5	41057	51886	1.315833	103.764722	1:18:57N	103:45:53E	48NUG6257045473	NA48-10	P	PPLX		SN	00				V				CLEMENTIHOUSINGESTATE	Clementi Housing Estate	Clementi Housing Estate	CLEMENTIHOUSINGESTATE	Clementi Housing Estate	Clementi Housing Estate		1995-07-26	1,2,3,4,5				1995-07-26		
5	41057	51887	1.315833	103.764722	1:18:57N	103:45:53E	48NUG6257045473	NA48-10	P	PPLX		SN	00				V				SITESTATE	Sit Estate	Sit Estate	SITESTATE	Sit Estate	Sit Estate		1995-07-26	1,2,3,4,5				1995-07-26		
5	41057	75214	1.315833	103.764722	1:18:57N	103:45:53E	48NUG6257045473	NA48-10	P	PPLX		SN	00				V				CLEMENTI	Clementi	Clementi	CLEMENTI	Clementi	Clementi		1995-07-26	1,2,3,4,5				1995-07-26		
5	30307	36774	1.328611	103.791389	1:19:43N	103:47:29E	48NUG6553846885	NA48-10	P	PPLX		SN	00				N				LUCKYPARK	Lucky Park	Lucky Park	LUCKYPARK	Lucky Park	Lucky Park		1995-07-26	1	1			1993-09-01		
5	30308	36775	1.330278	103.786667	1:19:49N	103:47:12E	48NUG6501247069	NA48-10	P	PPLX		SN	00				N				BRIZAYPARK	Brizay Park	Brizay Park	BRIZAYPARK	Brizay Park	Brizay Park		1995-07-26	1	1			1993-09-01		
5	40113	50729	1.359722	103.826111	1:21:35N	103:49:34E	48NUG6940350322	NA48-10	P	PPLX		SN	00				N				TIANGUANESTATE	Tian Guan Estate	Tian Guan Estate	TIANGUANESTATE	Tian Guan Estate	Tian Guan Estate		1995-04-26	1,2	1			1995-04-26		
5	40114	50730	1.356111	103.825833	1:21:22N	103:49:33E	48NUG6937249923	NA48-10	P	PPLX		SN	00				N				TIONGGUANESTATE	Tiong Guan Estate	Tiong Guan Estate	TIONGGUANESTATE	Tiong Guan Estate	Tiong Guan Estate		1995-04-26	1	1			1995-04-26		
5	30520	37096	1.351944	103.890833	1:21:07N	103:53:27E	48NUG7660449459	NA48-10	P	PPLX		SN	00				N				KAMPONGLEWLIAN	Kampong Lew Lian	Kampong Lew Lian	KAMPONGLEWLIAN	Kampong Lew Lian	Kampong Lew Lian		1995-07-26	1	1			1993-09-01		
5	27971	33867	1.353611	103.838611	1:21:13N	103:50:19E	48NUG7079349646	NA48-10	P	PPLX		SN	00				N				THOMSONGARDENESTATE	Thomson Garden Estate	Thomson Garden Estate	THOMSONGARDENESTATE	Thomson Garden Estate	Thomson Garden Estate		1995-07-26	1	1			1993-09-01		
5	27972	33868	1.371944	103.839444	1:22:19N	103:50:22E	48NUG7088751673	NA48-10	P	PPLX		SN	00				N				MAYFLOWERESTATE	Mayflower Estate	Mayflower Estate	MAYFLOWERESTATE	Mayflower Estate	Mayflower Estate		1995-07-26	1	1			1993-09-01		
5	27979	33876	1.357222	103.836389	1:21:26N	103:50:11E	48NUG7054650045	NA48-10	P	PPLX		SN	00				N				THOMSONPARK	Thomson Park	Thomson Park	THOMSONPARK	Thomson Park	Thomson Park		1995-07-26	1	1			1993-09-01		
5	30523	37099	1.363611	103.905	1:21:49N	103:54:18E	48NUG7818150748	NA48-10	P	PPLX		SN	00				N				HAISINGPARK	Hai Sing Park	Hai Sing Park	HAISINGPARK	Hai Sing Park	Hai Sing Park		1995-07-26	1	1			1993-09-01		
5	30525	37101	1.363611	103.913611	1:21:49N	103:54:49E	48NUG7913950748	NA48-10	P	PPLX		SN	00				N				FISHFARMINGESTATE	Fish Farming Estate	Fish Farming Estate	FISHFARMINGESTATE	Fish Farming Estate	Fish Farming Estate		1995-07-26	1	1			1993-09-01		
5	30311	36779	1.323333	103.803611	1:19:24N	103:48:13E	48NUG6689746300	NA48-10	P	PPLX		SN	00				N				CORONATIONGARDENS	Coronation Gardens	Coronation Gardens	CORONATIONGARDENS	Coronation Gardens	Coronation Gardens		1995-07-26	1	1			1993-09-01		
5	30318	36788	1.336111	103.770556	1:20:10N	103:46:14E	48NUG6322047715	NA48-10	P	PPLX		SN	00				N				ENGKHONGGARDENS	Eng Khong Gardens	Eng Khong Gardens	ENGKHONGGARDENS	Eng Khong Gardens	Eng Khong Gardens		1995-07-26	1	1			1993-09-01		
5	30644	37271	1.302778	103.914722	1:18:10N	103:54:53E	48NUG7925944022	NA48-10	P	PPLX		SN	00				N				ROSEGARDEN	Rose Garden	Rose Garden	ROSEGARDEN	Rose Garden	Rose Garden		1995-07-26	1	1			1993-09-01		
5	30597	37208	1.344167	103.897222	1:20:39N	103:53:50E	48NUG7731448599	NA48-10	P	PPLX		SN	00				N				QUEMOYPARK	Quemoy Park	Quemoy Park	QUEMOYPARK	Quemoy Park	Quemoy Park		1995-07-26	1	1			1993-09-01		
5	30600	37211	1.330556	103.896389	1:19:50N	103:53:47E	48NUG7722147094	NA48-10	P	PPLX		SN	00				N				HAPPYGARDENS	Happy Gardens	Happy Gardens	HAPPYGARDENS	Happy Gardens	Happy Gardens		1995-07-26	1	1			1993-09-01		
5	30618	37233	1.320556	103.955556	1:19:14N	103:57:20E	48NUG8380445986	NA48-10	P	PPLX		SN	00				N				KAMPONGTANAHMERAHKECHIL	Kampong Tanah Merah Kechil	Kampong Tanah Merah Kechil	KAMPONGTANAHMERAHKECHIL	Kampong Tanah Merah Kechil	Kampong Tanah Merah Kechil		1995-07-26	1	1			1993-09-01		
5	30619	37234	1.325556	103.952778	1:19:32N	103:57:10E	48NUG8349546539	NA48-10	P	PPLX		SN	00				N				LUCKYHILLS	Lucky Hills	Lucky Hills	LUCKYHILLS	Lucky Hills	Lucky Hills		1995-04-26	1,2,3,4,5	1			1995-04-26		
5	40680	51394	1.380278	103.839722	1:22:49N	103:50:23E	48NUG7091852594	NA48-10	P	PPL		SN	00				N				ANGMOKIONEWTOWN	Ang Mo Kio New Town	Ang Mo Kio New Town	ANGMOKIONEWTOWN	Ang Mo Kio New Town	Ang Mo Kio New Town		1995-04-27	1	1			1995-03-09		
5	30571	37165	1.35	103.971944	1:21:00N	103:58:19E	48NUG8562849240	NA48-10	P	PPLX		SN	00				N				KAMPONGWINGLOONG	Kampong Wing Loong	Kampong Wing Loong	KAMPONGWINGLOONG	Kampong Wing Loong	Kampong Wing Loong		1995-07-26	1	1			1993-09-01		
5	30572	37166	1.358056	103.979444	1:21:29N	103:58:46E	48NUG8646350130	NA48-10	P	PPLX		SN	00				N				KAMPONGDARATNANAS	Kampong Darat Nanas	Kampong Darat Nanas	KAMPONGDARATNANAS	Kampong Darat Nanas	Kampong Darat Nanas		1995-07-26	1	1			1993-09-01		
5	30583	37179	1.341389	103.903333	1:20:29N	103:54:12E	48NUG7799448291	NA48-10	P	PPLX		SN	00				N				KIMCHUAN	Kim Chuan	Kim Chuan	KIMCHUAN	Kim Chuan	Kim Chuan		1995-07-26	1	1			1993-09-01		
5	26475	31986	1.444444	103.776667	1:26:40N	103:46:36E	48NUG6390659691	NA48-10	P	PPL		SN	00				N				WOODLANDSNEWTOWN	Woodlands New Town	Woodlands New Town	WOODLANDSNEWTOWN	Woodlands New Town	Woodlands New Town		1996-11-29	1,2,3,4,5,6	1			1995-07-26		
5	26475	75393	1.444444	103.776667	1:26:40N	103:46:36E	48NUG6390659691	NA48-10	P	PPL		SN	00				V				WOODLANDS	Woodlands	Woodlands	WOODLANDS	Woodlands	Woodlands		1996-11-29	1,2,3,4,5,6				1995-07-26		
5	41052	51877	1.326389	103.941667	1:19:35N	103:56:30E	48NUG8225946631	NA48-10	P	PPL		SN	00				N				BEDOKNEWTOWN	Bedok New Town	Bedok New Town	BEDOKNEWTOWN	Bedok New Town	Bedok New Town		1996-11-29	1,2,3,4,5,6	1			1995-07-26		
5	41052	75766	1.326389	103.941667	1:19:35N	103:56:30E	48NUG8225946631	NA48-10	P	PPL		SN	00				V				BEDOK	Bedok	Bedok	BEDOK	Bedok	Bedok		1996-11-29	1,2,3,4,5,6				1995-07-26		
5	41052	51878	1.326389	103.941667	1:19:35N	103:56:30E	48NUG8225946631	NA48-10	P	PPL		SN	00				V				BEDOKVILLAGE	Bedok Village	Bedok Village	BEDOKVILLAGE	Bedok Village	Bedok Village		1996-11-29	1,2,3,4,5,6				1995-07-26		
5	47876	61015	1.3825	103.749722	1:22:57N	103:44:59E	48NUG6090452845	NA48-10	P	PPL		SN	00				N				CHOACHUKANGNEWTOWN	Choa Chu Kang New Town	Choa Chu Kang New Town	CHOACHUKANGNEWTOWN	Choa Chu Kang New Town	Choa Chu Kang New Town		1996-11-29	1,2,3,4,5,6	1			1996-11-27		
5	47876	61016	1.3825	103.749722	1:22:57N	103:44:59E	48NUG6090452845	NA48-10	P	PPL		SN	00				V				CHOACHUKANG	Choa Chu Kang	Choa Chu Kang	CHOACHUKANG	Choa Chu Kang	Choa Chu Kang		1996-11-29	1,2,3,4,5,6				1996-11-27		
5	40685	51402	1.379722	103.764722	1:22:47N	103:45:53E	48NUG6257352537	NA48-10	P	PPL		SN	00				N				BUKITPANJANGNEWTOWN	Bukit Panjang New Town	Bukit Panjang New Town	BUKITPANJANGNEWTOWN	Bukit Panjang New Town	Bukit Panjang New Town		1996-11-29	1,2,3,4,5,6	1			1995-07-26		
5	40685	51406	1.379722	103.764722	1:22:47N	103:45:53E	48NUG6257352537	NA48-10	P	PPL		SN	00				V				BUKITPANJANG	Bukit Panjang	Bukit Panjang	BUKITPANJANG	Bukit Panjang	Bukit Panjang		1996-11-29	1,2,3,4,5,6				1995-07-26		
5	58488	73754	1.363056	103.829722	1:21:47N	103:49:47E	48NUG6980550691	NA48-10	P	PPLX		SN	00				N				FABERGARDEN	Faber Garden	Faber Garden	FABERGARDEN	Faber Garden	Faber Garden		1995-04-26	1	1			1995-04-26		
5	53124	67215	1.324444	103.954444	1:19:28N	103:57:16E	48NUG8368046416	NA48-10	P	PPLL		SN	00				N				BEDOKVILLE	Bedok Ville	Bedok Ville	BEDOKVILLE	Bedok Ville	Bedok Ville		1995-04-26	1	1			1995-04-26		
5	352716	438675	1.4375	103.830556	1:26:15N	103:49:50E	48NUG6990258921	NA48-10	P	PPL		SN	00				N				KAMWAKHASSAN	Kam Wak Hassan	Kam Wak Hassan	KAMWAKHASSAN	Kam Wak Hassan	Kam Wak Hassan		1998-01-23	1	1			1998-01-22		
5	-73266	-107449	1.396944	104.047778	1:23:49N	104:02:52E	48NUG9406854426	NA48-10	P	PPL		SN	00				N				KAMPONGBATUKOYOK	Kampong Batu Koyok	Kampong Batu Koyok	KAMPONGBATUKOYOK	Kampong Batu Koyok	Kampong Batu Koyok		1995-04-27	1,2,3,4,5	1			1995-04-27		
5	-73553	-107813	1.306111	103.786667	1:18:22N	103:47:12E	48NUG6501144397	NA48-10	P	PPLX		SN	00				N				ROCHESTERPARK	Rochester Park	Rochester Park	ROCHESTERPARK	Rochester Park	Rochester Park		1995-07-26	1,2,3,4,5	1			1993-09-01		
5	-73544	-107799	1.332222	103.804444	1:19:56N	103:48:16E	48NUG6699147283	NA48-10	P	PPLX		SN	00				N				RAFFLESPARK	Raffles Park	Raffles Park	RAFFLESPARK	Raffles Park	Raffles Park		1995-07-26	1,2,3,4,5	1			1993-09-01		
5	-73453	-107677	1.308889	103.901389	1:18:32N	103:54:05E	48NUG7777644699	NA48-10	P	PPLX		SN	00				N				OLDKALLANGAIRPORTESTATE	Old Kallang Airport Estate	Old Kallang Airport Estate	OLDKALLANGAIRPORTESTATE	Old Kallang Airport Estate	Old Kallang Airport Estate		1995-07-26	1,2,3,4,5	1			1993-09-01		
5	-73252	-107429	1.333333	103.866667	1:20:00N	103:52:00E	48NUG7391447403	NA48-10	P	PPLX		SN	00				D				KALANG	Kalang	Kalang	KALANG	Kalang	Kalang		1995-07-26	1,2,3,4,5	1			1995-06-21		
5	-73252	-107433	1.333333	103.866667	1:20:00N	103:52:00E	48NUG7391447403	NA48-10	P	PPLX		SN	00				V				KALLANG	Kallang	Kallang	KALLANG	Kallang	Kallang		1995-07-26	1,2,3,4,5				1995-06-21		
5	-73321	-107507	1.416111	104.033333	1:24:58N	104:02:00E	48NUG9246256546	NA48-10	P	PPL		SN	00				N				KAMPONGSALABIN	Kampong Salabin	Kampong Salabin	KAMPONGSALABIN	Kampong Salabin	Kampong Salabin		1995-04-27	1,2,3,4,5	1			1995-04-27		
5	-73756	-108079	1.357222	103.971944	1:21:26N	103:58:19E	48NUG8562950038	NA48-10	P	PPLX		SN	00				N				YANKIT	Yan Kit	Yan Kit	YANKIT	Yan Kit	Yan Kit		1996-11-29	1,2,3,4,5,6	1			1993-09-01		
5	-73756	-108080	1.357222	103.971944	1:21:26N	103:58:19E	48NUG8562950038	NA48-10	P	PPLX		SN	00				V				YANKITVILLAGE	Yan Kit Village	Yan Kit Village	YANKITVILLAGE	Yan Kit Village	Yan Kit Village		1996-11-29	1,2,3,4,5,6				1993-09-01		
5	-73747	-108068	1.296944	103.795278	1:17:49N	103:47:43E	48NUG6596943383	NA48-10	P	PPLX		SN	00				N				WESSEXESTATE	Wessex Estate	Wessex Estate	WESSEXESTATE	Wessex Estate	Wessex Estate		1995-07-26	1,2,3,4,5	1			1993-09-01		
5	-73121	-107621	1.412222	103.756667	1:24:44N	103:45:24E	48NUG6167956130	NA48-10	P	PPL		SN	00				V				MANDAIROADVILLAGE	Mandai Road Village	Mandai Road Village	MANDAIROADVILLAGE	Mandai Road Village	Mandai Road Village		1996-11-29	1,2,3,4,5,6				1996-11-27		
5	-73121	-107617	1.412222	103.756667	1:24:44N	103:45:24E	48NUG6167956130	NA48-10	P	PPL		SN	00				V				MANDAI	Mandai	Mandai	MANDAI	Mandai	Mandai		1996-11-29	1,2,3,4,5,6				1996-11-27		
5	-73121	-107244	1.412222	103.756667	1:24:44N	103:45:24E	48NUG6167956130	NA48-10	P	PPL		SN	00				N				BUKITMANDAIVILLAGE	Bukit Mandai Village	Bukit Mandai Village	BUKITMANDAIVILLAGE	Bukit Mandai Village	Bukit Mandai Village		1996-11-29	1,2,3,4,5,6	1			1996-11-27		
5	-73121	-107622	1.412222	103.756667	1:24:44N	103:45:24E	48NUG6167956130	NA48-10	P	PPL		SN	00				V				BUKITMANDAI	Bukit Mandai	Bukit Mandai	BUKITMANDAI	Bukit Mandai	Bukit Mandai		1996-11-29	1,2,3,4,5,6				1996-11-27		
5	-73433	-107652	1.445556	103.796944	1:26:44N	103:47:49E	48NUG6616259813	NA48-10	P	PPLL		SN	00				N				MOKPENGHIANGESTATE	Mok Peng Hiang Estate	Mok Peng Hiang Estate	MOKPENGHIANGESTATE	Mok Peng Hiang Estate	Mok Peng Hiang Estate		1995-04-27	1,2,3,4,5	1			1995-04-25		
5	30617	37232	1.322778	103.957778	1:19:22N	103:57:28E	48NUG8405146231	NA48-10	P	PPLX		SN	00				N				BEDOKGARDEN	Bedok Garden	Bedok Garden	BEDOKGARDEN	Bedok Garden	Bedok Garden		1995-07-26	1	1			1993-09-01		
5	30633	37260	1.3225	103.923611	1:19:21N	103:55:25E	48NUG8024946202	NA48-10	P	PPLX		SN	00				N				KAMPONGPACHITAN	Kampong Pachitan	Kampong Pachitan	KAMPONGPACHITAN	Kampong Pachitan	Kampong Pachitan		1995-07-26	1	1			1993-09-01		
5	30305	36772	1.326667	103.811389	1:19:36N	103:48:41E	48NUG6776346669	NA48-10	P	PPLX		SN	00				N				WATTENESTATE	Watten Estate	Watten Estate	WATTENESTATE	Watten Estate	Watten Estate		1995-07-26	1	1			1993-09-01		
5	30522	37098	1.369444	103.904722	1:22:10N	103:54:17E	48NUG7815051393	NA48-10	P	PPLX		SN	00				N				PEOPLESGARDEN	Peoples Garden	Peoples Garden	PEOPLESGARDEN	Peoples Garden	Peoples Garden		1995-07-26	1	1			1993-09-01		
5	41114	51974	1.369167	103.849722	1:22:09N	103:50:59E	48NUG7203151365	NA48-10	P	PPLX		SN	00				N				ANGMOKIONEWTOWN	Ang Mo Kio New Town	Ang Mo Kio New Town	ANGMOKIONEWTOWN	Ang Mo Kio New Town	Ang Mo Kio New Town		1995-07-26	1,2,3,4,5	1			1995-07-26		
5	41114	51975	1.369167	103.849722	1:22:09N	103:50:59E	48NUG7203151365	NA48-10	P	PPLX		SN	00				V				ANGMOKIOVILLAGE	Ang Mo Kio Village	Ang Mo Kio Village	ANGMOKIOVILLAGE	Ang Mo Kio Village	Ang Mo Kio Village		1995-07-26	1,2,3,4,5				1995-07-26		
5	41114	75125	1.369167	103.849722	1:22:09N	103:50:59E	48NUG7203151365	NA48-10	P	PPLX		SN	00				V				ANGMOKIO	Ang Mo Kio	Ang Mo Kio	ANGMOKIO	Ang Mo Kio	Ang Mo Kio		1995-07-26	1,2,3,4,5				1995-07-26		
5	30428	36966	1.284444	103.841944	1:17:04N	103:50:31E	48NUG7116141999	NA48-10	P	PPLX		SN	00				N				PEOPLESPARK	People’s Park	People's Park	PEOPLESPARK	People’s Park	People's Park		1995-07-26	1	1			1993-09-01		
5	22319	27007	1.287778	103.83	1:17:16N	103:49:48E	48NUG6983242368	NA48-10	P	PPLX		SN	00				N				BUKITHOSWEEESTATE	Bukit Ho Swee Estate	Bukit Ho Swee Estate	BUKITHOSWEEESTATE	Bukit Ho Swee Estate	Bukit Ho Swee Estate		1995-07-26	1,2,3,4,5	1			1993-09-01		
5	23176	27941	1.2825	103.838056	1:16:57N	103:50:17E	48NUG7072841784	NA48-10	P	PPLX		SN	00				N				OUTRAMPARK	Outram Park	Outram Park	OUTRAMPARK	Outram Park	Outram Park		1995-07-26	1,2,3,4,5	1			1993-09-01		
5	22473	27188	1.334167	103.722778	1:20:03N	103:43:22E	48NUG5790447503	NA48-10	P	PPL		SN	00				V				JURONGVILLAGE	Jurong Village	Jurong Village	JURONGVILLAGE	Jurong Village	Jurong Village		1996-11-29	1,2,3,4,5,6				1993-09-01		
5	22473	33367	1.334167	103.722778	1:20:03N	103:43:22E	48NUG5790447503	NA48-10	P	PPL		SN	00				N				JURONGTOWN	Jurong Town	Jurong Town	JURONGTOWN	Jurong Town	Jurong Town		1996-11-29	1,2,3,4,5,6	1			1993-09-01		
5	22473	27185	1.334167	103.722778	1:20:03N	103:43:22E	48NUG5790447503	NA48-10	P	PPL		SN	00				V				JURONG	Jurong	Jurong	JURONG	Jurong	Jurong		1996-11-29	1,2,3,4,5,6				1993-09-01		
5	22473	30439	1.334167	103.722778	1:20:03N	103:43:22E	48NUG5790447503	NA48-10	P	PPL		SN	00				V				BANDARBAHARUJURONG	Bandar Baharu Jurong	Bandar Baharu Jurong	BANDARBAHARUJURONG	Bandar Baharu Jurong	Bandar Baharu Jurong		1996-11-29	1,2,3,4,5,6				1993-09-01		
5	22473	27187	1.334167	103.722778	1:20:03N	103:43:22E	48NUG5790447503	NA48-10	P	PPL		SN	00				V				JURONGNEWTOWN	Jurong New Town	Jurong New Town	JURONGNEWTOWN	Jurong New Town	Jurong New Town		1996-11-29	1,2,3,4,5,6				1993-09-01		
5	-73222	-107384	1.266667	103.8	1:16:00N	103:48:00E	48NUG6649340036	NA48-10	P	PPLX		SN	00				V				HEAPGUAN	Heap Guan	Heap Guan	HEAPGUAN	Heap Guan	Heap Guan		1995-07-26	1,2,3,4,5				1995-06-21		
5	-73222	-107385	1.266667	103.8	1:16:00N	103:48:00E	48NUG6649340036	NA48-10	P	PPLX		SN	00				D				HEAPGUANVILLAGE	Heap Guan Village	Heap Guan Village	HEAPGUANVILLAGE	Heap Guan Village	Heap Guan Village		1995-07-26	1,2,3,4,5	1			1995-06-21		
5	-73295	-107480	1.266667	103.716667	1:16:00N	103:43:00E	48NUG5722040040	NA48-10	P	PPL		SN	00				D				KAMPONGMAKBAOK	Kampong Mak Baok	Kampong Mak Baok	KAMPONGMAKBAOK	Kampong Mak Baok	Kampong Mak Baok		1995-07-26	1,2,3,4,5	1			1993-09-01		
5	-73287	-107471	1.435	103.859167	1:26:06N	103:51:33E	48NUG7308558643	NA48-10	P	PPL		SN	00				D				KAMPONGKITIN	Kampong Kitin	Kampong Kitin	KAMPONGKITIN	Kampong Kitin	Kampong Kitin		1995-07-26	1,2,3,4,5	1			1993-09-01		
5	-73386	-107588	1.349167	103.652778	1:20:57N	103:39:10E	48NUG5011549165	NA48-10	P	PPLX		SN	00				N				LAMKIONGESTATE	Lam Kiong Estate	Lam Kiong Estate	LAMKIONGESTATE	Lam Kiong Estate	Lam Kiong Estate		1995-07-26	1,2,3,4,5	1			1993-09-01		
5	-73371	-107568	1.357222	103.726111	1:21:26N	103:43:34E	48NUG5827650051	NA48-10	P	PPLX		SN	00				N				KIANHONGESTATE	Kian Hong Estate	Kian Hong Estate	KIANHONGESTATE	Kian Hong Estate	Kian Hong Estate		1995-07-26	1,2,3,4,5	1			1993-09-01		
5	30566	37155	1.362778	103.908333	1:21:46N	103:54:30E	48NUG7855250656	NA48-10	P	PPLX		SN	00				N				PUNGGOLESTATE	Punggol Estate	Punggol Estate	PUNGGOLESTATE	Punggol Estate	Punggol Estate		1995-07-26	1	1			1993-09-01		
5	-73314	-107500	1.333333	103.866667	1:20:00N	103:52:00E	48NUG7391447403	NA48-10	P	PPLX		SN	00				D				KAMPONGPOTONGPASIR	Kampong Potong Pasir	Kampong Potong Pasir	KAMPONGPOTONGPASIR	Kampong Potong Pasir	Kampong Potong Pasir		1995-07-26	1,2,3,4,5	1			1993-09-01		
5	30340	36827	1.311111	103.787778	1:18:40N	103:47:16E	48NUG6513544950	NA48-10	P	PPLX		SN	00				N				GHIMMOH	Ghim Moh	Ghim Moh	GHIMMOH	Ghim Moh	Ghim Moh		1995-07-26	1	1			1993-09-01		
5	30362	36861	1.320278	103.813611	1:19:13N	103:48:49E	48NUG6801045962	NA48-10	P	PPLX		SN	00				N				CHIPHOCKGARDEN	Chip Hock Garden	Chip Hock Garden	CHIPHOCKGARDEN	Chip Hock Garden	Chip Hock Garden		1995-07-26	1	1			1993-09-01		
5	-73186	-107338	1.325278	103.823056	1:19:31N	103:49:23E	48NUG6906146514	NA48-10	P	PPLX		SN	00				N				DUNEARNESTATE	Dunearn Estate	Dunearn Estate	DUNEARNESTATE	Dunearn Estate	Dunearn Estate		1995-07-26	1,2,3,4,5	1			1993-09-01		
5	-73130	50696	1.340278	103.775833	1:20:25N	103:46:33E	48NUG6380748175	NA48-10	P	PPLX		SN	00				V				BUKITTIMAH	Bukit Timah	Bukit Timah	BUKITTIMAH	Bukit Timah	Bukit Timah		1996-11-29	1,2,3,4,5,6				1993-09-01		
5	-73130	-107256	1.340278	103.775833	1:20:25N	103:46:33E	48NUG6380748175	NA48-10	P	PPLX		SN	00				V				BUKITTIMAHVILLAGE	Bukit Timah Village	Bukit Timah Village	BUKITTIMAHVILLAGE	Bukit Timah Village	Bukit Timah Village		1996-11-29	1,2,3,4,5,6				1993-09-01		
5	-73130	-107252	1.340278	103.775833	1:20:25N	103:46:33E	48NUG6380748175	NA48-10	P	PPLX		SN	00				N				BUKITTIMAHESTATE	Bukit Timah Estate	Bukit Timah Estate	BUKITTIMAHESTATE	Bukit Timah Estate	Bukit Timah Estate		1996-11-29	1,2,3,4,5,6	1			1993-09-01		
5	-73124	-107248	1.359722	103.970278	1:21:35N	103:58:13E	48NUG8544450315	NA48-10	P	PPLX		SN	00				N				BUKITSEMBAWANGESTATE	Bukit Sembawang Estate	Bukit Sembawang Estate	BUKITSEMBAWANGESTATE	Bukit Sembawang Estate	Bukit Sembawang Estate		1995-07-26	1,2,3,4,5	1			1993-09-01		
5	-73116	-107238	1.287222	103.808333	1:17:14N	103:48:30E	48NUG6742142308	NA48-10	P	PPLX		SN	00				N				BRICKWORKSESTATE	Brickworks Estate	Brickworks Estate	BRICKWORKSESTATE	Brickworks Estate	Brickworks Estate		1995-07-26	1,2,3,4,5	1			1993-09-01		
5	-73452	-107676	1.315278	103.793889	1:18:55N	103:47:38E	48NUG6581545410	NA48-10	P	PPLX		SN	00				N				OEITIONGHAMPARK	Oei Tiong Ham Park	Oei Tiong Ham Park	OEITIONGHAMPARK	Oei Tiong Ham Park	Oei Tiong Ham Park		1995-07-26	1,2,3,4,5	1			1993-09-01		
5	-73533	-107786	1.403333	103.971389	1:24:12N	103:58:17E	48NUG8556955136	NA48-10	P	PPL		SN	00				N				PULAUUBINVILLAGE	Pulau Ubin Village	Pulau Ubin Village	PULAUUBINVILLAGE	Pulau Ubin Village	Pulau Ubin Village		1995-04-27	1,2,3,4,5	1			1995-03-09		
5	-73533	-107783	1.403333	103.971389	1:24:12N	103:58:17E	48NUG8556955136	NA48-10	P	PPL		SN	00				V				PULAUUBIN	Pulau Ubin	Pulau Ubin	PULAUUBIN	Pulau Ubin	Pulau Ubin		1995-04-27	1,2,3,4,5				1995-03-09		
5	-73533	32309	1.403333	103.971389	1:24:12N	103:58:17E	48NUG8556955136	NA48-10	P	PPL		SN	00				V				KAMPONGPULAUUBIN	Kampong Pulau Ubin	Kampong Pulau Ubin	KAMPONGPULAUUBIN	Kampong Pulau Ubin	Kampong Pulau Ubin		1995-04-27	1,2,3,4,5				1995-03-09		
5	-73635	-108047	1.293056	103.855833	1:17:35N	103:51:21E	48NUG7270742950	NA48-10	P	PPLC		SN	00				V				TUMASIK	Tumasik	Tumasik	TUMASIK	Tumasik	Tumasik		1997-08-29	1,2,3,4,5,6				1993-09-01		
5	-73635	67118	1.293056	103.855833	1:17:35N	103:51:21E	48NUG7270742950	NA48-10	P	PPLC		SN	00				V				SINGAPORECITY	Singapore City	Singapore City	SINGAPORECITY	Singapore City	Singapore City		1997-08-29	1,2,3,4,5,6				1993-09-01		
5	-73635	-107919	1.293056	103.855833	1:17:35N	103:51:21E	48NUG7270742950	NA48-10	P	PPLC		SN	00				N				SINGAPORE	Singapore	Singapore	SINGAPORE	Singapore	Singapore		1997-08-29	1,2,3,4,5,6	1			1993-09-01		
5	-73604	-107876	1.450833	103.828611	1:27:03N	103:49:43E	48NUG6968660395	NA48-10	P	PPLL		SN	00				N		Sembawang		SEMBAWANGESTATE	Sembawang Estate	Sembawang Estate	SEMBAWANGESTATE	Sembawang Estate	Sembawang Estate		1996-11-29	1,2,3,4,5,6	1			1995-07-26		
5	-73604	49899	1.450833	103.828611	1:27:03N	103:49:43E	48NUG6968660395	NA48-10	P	PPLL		SN	00				V				SEMBAWANG	Sembawang	Sembawang	SEMBAWANG	Sembawang	Sembawang		1996-11-29	1,2,3,4,5,6				1995-07-26		
5	-73604	-107880	1.450833	103.828611	1:27:03N	103:49:43E	48NUG6968660395	NA48-10	P	PPLL		SN	00				V				SEMBAWANGVILLAGE	Sembawang Village	Sembawang Village	SEMBAWANGVILLAGE	Sembawang Village	Sembawang Village		1996-11-29	1,2,3,4,5,6				1995-07-26		
5	30306	36773	1.334722	103.809167	1:20:05N	103:48:33E	48NUG6751647559	NA48-10	P	PPLX		SN	00				N				HILLCRESTPARK	Hillcrest Park	Hillcrest Park	HILLCRESTPARK	Hillcrest Park	Hillcrest Park		1995-07-26	1	1			1993-09-01		
5	26490	32004	1.381667	103.7525	1:22:54N	103:45:09E	48NUG6121452752	NA48-10	P	PPLL		SN	00				N				BUKITPANJANGESTATE	Bukit Panjang Estate	Bukit Panjang Estate	BUKITPANJANGESTATE	Bukit Panjang Estate	Bukit Panjang Estate		1995-04-27	1	1			1995-04-25		
5	-73322	-107508	1.346944	103.840833	1:20:49N	103:50:27E	48NUG7104048909	NA48-10	P	PPLX		SN	00				N				KAMPONGSANTENG	Kampong San Teng	Kampong San Teng	KAMPONGSANTENG	Kampong San Teng	Kampong San Teng		1995-07-26	1,2,3,4,5	1			1993-09-01		
5	-73419	-107636	1.305556	103.775556	1:18:20N	103:46:32E	48NUG6377544337	NA48-10	P	PPLX		SN	00				N				MEDWAYPARK	Medway Park	Medway Park	MEDWAYPARK	Medway Park	Medway Park		1995-07-26	1,2,3,4,5	1			1993-09-01		
5	-73754	-108077	1.341667	103.867778	1:20:30N	103:52:04E	48NUG7403848324	NA48-10	P	PPLX		SN	00				N				WOODLEIGHPARK	Woodleigh Park	Woodleigh Park	WOODLEIGHPARK	Woodleigh Park	Woodleigh Park		1995-07-26	1,2,3,4,5	1			1993-09-01		
5	-73734	-108054	1.333333	103.933333	1:20:00N	103:56:00E	48NUG8133247399	NA48-10	P	PPL		SN	00				V				ULUBEDOKVILLAGE	Ulu Bedok Village	Ulu Bedok Village	ULUBEDOKVILLAGE	Ulu Bedok Village	Ulu Bedok Village		1995-07-26	1,2,3,4,5				1995-06-21		
5	-73734	-108053	1.333333	103.933333	1:20:00N	103:56:00E	48NUG8133247399	NA48-10	P	PPL		SN	00				D				ULUBEDOK	Ulu Bedok	Ulu Bedok	ULUBEDOK	Ulu Bedok	Ulu Bedok		1995-07-26	1,2,3,4,5	1			1995-06-21		
5	-73717	75381	1.336111	103.85	1:20:10N	103:51:00E	48NUG7206047711	NA48-10	P	PPLX		SN	00				V				TOAPAYOH	Toa Payoh	Toa Payoh	TOAPAYOH	Toa Payoh	Toa Payoh		1996-11-29	1,2,3,4,5,6				1995-07-26		
5	-73717	-108033	1.336111	103.85	1:20:10N	103:51:00E	48NUG7206047711	NA48-10	P	PPLX		SN	00				N		Toa Payoh		TOAPAYOHNEWTOWN	Toa Payoh New Town	Toa Payoh New Town	TOAPAYOHNEWTOWN	Toa Payoh New Town	Toa Payoh New Town		1996-11-29	1,2,3,4,5,6	1			1995-07-26		
5	-73686	-107992	1.3675	103.916111	1:22:03N	103:54:58E	48NUG7941751177	NA48-10	P	PPLX		SN	00				V				TECKHOCKVILLAGE	Teck Hock Village	Teck Hock Village	TECKHOCKVILLAGE	Teck Hock Village	Teck Hock Village		1995-07-26	1,2,3,4,5				1993-09-01		
5	-73686	-107991	1.3675	103.916111	1:22:03N	103:54:58E	48NUG7941751177	NA48-10	P	PPLX		SN	00				N				TECKHOCK	Teck Hock	Teck Hock	TECKHOCK	Teck Hock	Teck Hock		1995-07-26	1,2,3,4,5	1			1993-09-01		
5	-73584	-107851	1.3	103.908889	1:18:00N	103:54:32E	48NUG7861043716	NA48-10	P	PPLX		SN	00				N				SEAVIEWESTATE	Sea View Estate	Sea View Estate	SEAVIEWESTATE	Sea View Estate	Sea View Estate		1995-07-26	1,2,3,4,5	1			1993-09-01		
5	-73677	-107979	1.316667	103.816667	1:19:00N	103:49:00E	48NUG6835045563	NA48-10	P	PPLX		SN	00				D				TANGLIN	Tanglin	Tanglin	TANGLIN	Tanglin	Tanglin		1995-07-26	1,2,3,4,5	1			1995-06-21		
5	-73677	-107322	1.316667	103.816667	1:19:00N	103:49:00E	48NUG6835045563	NA48-10	P	PPLX		SN	00				V				CITYWEST	City West	City West	CITYWEST	City West	City West		1995-07-26	1,2,3,4,5				1995-06-21		
5	-73645	-107938	1.366667	103.883333	1:22:00N	103:53:00E	48NUG7577051087	NA48-10	P	PPL		SN	00				D				SOMAPAHSERANGOON	Somapah Serangoon	Somapah Serangoon	SOMAPAHSERANGOON	Somapah Serangoon	Somapah Serangoon		1995-07-26	1,2,3,4,5	1			1993-09-01		
5	26527	32045	1.395278	103.821389	1:23:43N	103:49:17E	48NUG6887954253	NA48-10	P	PPLL		SN	00				N				SPRINGLEAFPARK	Springleaf Park	Springleaf Park	SPRINGLEAFPARK	Springleaf Park	Springleaf Park		1995-04-27	1	1			1995-04-25		
5	30577	37172	1.345833	103.965278	1:20:45N	103:57:55E	48NUG8488748780	NA48-10	P	PPLX		SN	00				N				EASTVIEWGARDEN	East View Garden	East View Garden	EASTVIEWGARDEN	East View Garden	East View Garden		1995-07-26	1	1			1993-09-01		
5	27977	33874	1.351389	103.832778	1:21:05N	103:49:58E	48NUG7014449401	NA48-10	P	PPLX		SN	00				N				THOMSONRIDGEESTATE	Thomson Ridge Estate	Thomson Ridge Estate	THOMSONRIDGEESTATE	Thomson Ridge Estate	Thomson Ridge Estate		1995-07-26	1	1			1993-09-01		
5	30316	36786	1.318333	103.775833	1:19:06N	103:46:33E	48NUG6380645749	NA48-10	P	PPLX		SN	00				N				PANDANVALLEY	Pandan Valley	Pandan Valley	PANDANVALLEY	Pandan Valley	Pandan Valley		1995-07-26	1	1			1993-09-01		
5	30595	37205	1.350278	103.900278	1:21:01N	103:54:01E	48NUG7765549274	NA48-10	P	PPLX		SN	00				N				AHSOOGARDEN	Ah Soo Garden	Ah Soo Garden	AHSOOGARDEN	Ah Soo Garden	Ah Soo Garden		1995-07-26	1	1			1993-09-01		
5	30616	37230	1.3225	103.961389	1:19:21N	103:57:41E	48NUG8445346200	NA48-10	P	PPLX		SN	00				N				BEDOKVILLAGE	Bedok Village	Bedok Village	BEDOKVILLAGE	Bedok Village	Bedok Village		1995-07-26	1	1			1995-07-26		
5	30616	75210	1.3225	103.961389	1:19:21N	103:57:41E	48NUG8445346200	NA48-10	P	PPLX		SN	00				V				BEDOK	Bedok	Bedok	BEDOK	Bedok	Bedok		1995-07-26	1				1995-07-26		
5	-73274	-107457	1.383611	103.76	1:23:01N	103:45:36E	48NUG6204852967	NA48-10	P	PPL		SN	00				N				KAMPONGBUKITPANJANG	Kampong Bukit Panjang	Kampong Bukit Panjang	KAMPONGBUKITPANJANG	Kampong Bukit Panjang	Kampong Bukit Panjang		1995-04-27	1,2,3,4,5	1			1995-04-27		
5	-73267	-107450	1.371111	103.691944	1:22:16N	103:41:31E	48NUG5447551589	NA48-10	P	PPLL		SN	00				N				KAMPONGBELIMBING	Kampong Belimbing	Kampong Belimbing	KAMPONGBELIMBING	Kampong Belimbing	Kampong Belimbing		1995-07-26	1,2,3,4,5	1			1993-09-01		
5	-73260	-107443	1.266667	103.716667	1:16:00N	103:43:00E	48NUG5722040040	NA48-10	P	PPL		SN	00				D				KAMPONGAYERMERBAU	Kampong Ayer Merbau	Kampong Ayer Merbau	KAMPONGAYERMERBAU	Kampong Ayer Merbau	Kampong Ayer Merbau		1995-07-26	1,2,3,4,5	1			1993-09-01		
5	-73258	-107441	1.35	103.983333	1:21:00N	103:59:00E	48NUG8689649239	NA48-10	P	PPL		SN	00				D				KAMPONGAYERGEMURUH	Kampong Ayer Gemuruh	Kampong Ayer Gemuruh	KAMPONGAYERGEMURUH	Kampong Ayer Gemuruh	Kampong Ayer Gemuruh		1995-07-26	1,2,3,4,5	1			1993-09-01		
5	-73239	-107408	1.294722	103.772778	1:17:41N	103:46:22E	48NUG6346543139	NA48-10	P	PPLX		SN	00				N				ISLANDVIEWESTATE	Island View Estate	Island View Estate	ISLANDVIEWESTATE	Island View Estate	Island View Estate		1995-07-26	1,2,3,4,5	1			1993-09-01		
5	-73340	-107530	1.3	103.75	1:18:00N	103:45:00E	48NUG6093143724	NA48-10	P	PPL		SN	00				V				KAMPONGTANJONGPENURU	Kampong Tanjong Penuru	Kampong Tanjong Penuru	KAMPONGTANJONGPENURU	Kampong Tanjong Penuru	Kampong Tanjong Penuru		1995-07-26	1,2,3,4,5				1995-06-21		
5	-73340	-107529	1.3	103.75	1:18:00N	103:45:00E	48NUG6093143724	NA48-10	P	PPL		SN	00				D				KAMPONGTANJONGPENJURU	Kampong Tanjong Penjuru	Kampong Tanjong Penjuru	KAMPONGTANJONGPENJURU	Kampong Tanjong Penjuru	Kampong Tanjong Penjuru		1995-07-26	1,2,3,4,5	1			1995-06-21		
5	-73312	-107498	1.283333	103.683333	1:17:00N	103:41:00E	48NUG5351141885	NA48-10	P	PPL		SN	00				D				KAMPONGPESEK	Kampong Pesek	Kampong Pesek	KAMPONGPESEK	Kampong Pesek	Kampong Pesek		1995-07-26	1,2,3,4,5	1			1993-09-01		
5	-73301	-107487	1.316667	103.916667	1:19:00N	103:55:00E	48NUG7947745558	NA48-10	P	PPL		SN	00				D				KAMPONGPACHITAN	Kampong Pachitan	Kampong Pachitan	KAMPONGPACHITAN	Kampong Pachitan	Kampong Pachitan		1995-07-26	1,2,3,4,5	1			1993-09-01		
5	-73296	-107482	1.417222	103.976111	1:25:02N	103:58:34E	48NUG8609556671	NA48-10	P	PPL		SN	00				N				KAMPONGMAMAM	Kampong Mamam	Kampong Mamam	KAMPONGMAMAM	Kampong Mamam	Kampong Mamam		1995-04-27	1,2,3,4,5	1			1995-04-26		
5	-73289	-107574	1.433333	103.75	1:26:00N	103:45:00E	48NUG6093858465	NA48-10	P	PPL		SN	00				V				KRANJI	Kranji	Kranji	KRANJI	Kranji	Kranji		1996-11-29	1,2,3,4,5,6				1995-06-21		
5	-73289	-107473	1.433333	103.75	1:26:00N	103:45:00E	48NUG6093858465	NA48-10	P	PPL		SN	00				D				KAMPONGKRANJI	Kampong Kranji	Kampong Kranji	KAMPONGKRANJI	Kampong Kranji	Kampong Kranji		1996-11-29	1,2,3,4,5,6	1			1995-06-21		
5	-73278	-107461	1.414444	103.989722	1:24:52N	103:59:23E	48NUG8761056363	NA48-10	P	PPL		SN	00				N				KAMPONGCHEJEVAH	Kampong Che Jevah	Kampong Che Jevah	KAMPONGCHEJEVAH	Kampong Che Jevah	Kampong Che Jevah		1995-04-27	1,2,3,4,5	1			1995-04-27		
5	-73354	-107546	1.461389	103.836389	1:27:41N	103:50:11E	48NUG7055261561	NA48-10	P	PPL		SN	00				N				KAMPONGWAKHASSAN	Kampong Wak Hassan	Kampong Wak Hassan	KAMPONGWAKHASSAN	Kampong Wak Hassan	Kampong Wak Hassan		1995-04-27	1,2,3,4,5	1			1995-04-27		
5	30521	37097	1.352222	103.898056	1:21:08N	103:53:53E	48NUG7740849489	NA48-10	P	PPL		SN	00				N				KAMPONGSIREN	Kampong Siren	Kampong Siren	KAMPONGSIREN	Kampong Siren	Kampong Siren		1995-07-26	1	1			1993-09-01		
5	-73290	-107474	1.316667	103.866667	1:19:00N	103:52:00E	48NUG7391345560	NA48-10	P	PPLX		SN	00				D				KAMPONGKUCHAI	Kampong Kuchai	Kampong Kuchai	KAMPONGKUCHAI	Kampong Kuchai	Kampong Kuchai		1995-07-26	1,2,3,4,5	1			1993-09-01		
5	30648	37280	1.311111	103.891111	1:18:40N	103:53:28E	48NUG7663344945	NA48-10	P	PPLX		SN	00				N				GAYWORLDPARK	Gay World Park	Gay World Park	GAYWORLDPARK	Gay World Park	Gay World Park		1995-07-26	1	1			1993-09-01		
5	30303	36766	1.322222	103.831944	1:19:20N	103:49:55E	48NUG7005046176	NA48-10	P	PPLX		SN	00				N				GOLDHILLGARDENS	Goldhill Gardens	Goldhill Gardens	GOLDHILLGARDENS	Goldhill Gardens	Goldhill Gardens		1995-07-26	1	1			1993-09-01		
5	30310	36778	1.327778	103.796944	1:19:40N	103:47:49E	48NUG6615646792	NA48-10	P	PPLX		SN	00				N				SHAMROCKPARK	Shamrock Park	Shamrock Park	SHAMROCKPARK	Shamrock Park	Shamrock Park		1995-07-26	1	1			1993-09-01		
5	30570	37163	1.351667	103.975	1:21:06N	103:58:30E	48NUG8596949424	NA48-10	P	PPLX		SN	00				N				BENAPARK	Bena Park	Bena Park	BENAPARK	Bena Park	Bena Park		1995-07-26	1	1			1993-09-01		
5	25932	31220	1.436667	103.709444	1:26:12N	103:42:34E	48NUG5642658836	NA48-10	P	PPL		SN	00				N				LIMCHUKANG	Lim Chu Kang	Lim Chu Kang	LIMCHUKANG	Lim Chu Kang	Lim Chu Kang		1995-04-27	1	1			1995-04-27		
5	-73363	-107558	1.377778	103.744167	1:22:40N	103:44:39E	48NUG6028652323	NA48-10	P	PPL		SN	00				V				KEATHONG	Keat Hong	Keat Hong	KEATHONG	Keat Hong	Keat Hong		1995-07-26	1,2,3,4,5				1995-07-26		
5	-73363	-107559	1.377778	103.744167	1:22:40N	103:44:39E	48NUG6028652323	NA48-10	P	PPL		SN	00				N		Keat Hong		KEATHONGVILLAGE	Keat Hong Village	Keat Hong Village	KEATHONGVILLAGE	Keat Hong Village	Keat Hong Village		1995-07-26	1,2,3,4,5	1			1995-07-26		
5	-73311	-107497	1.424167	104.038889	1:25:27N	104:02:20E	48NUG9308057436	NA48-10	P	PPL		SN	00				N				KAMPONGPERMATANG	Kampong Permatang	Kampong Permatang	KAMPONGPERMATANG	Kampong Permatang	Kampong Permatang		1995-04-27	1,2,3,4,5	1			1995-04-27		
5	-73306	-107719	1.378333	103.931944	1:22:42N	103:55:55E	48NUG8117952374	NA48-10	P	PPL		SN	00				V				PASIRRIS	Pasir Ris	Pasir Ris	PASIRRIS	Pasir Ris	Pasir Ris		1995-07-26	1,2,3,4,5				1995-04-26		
5	-73306	-107492	1.378333	103.931944	1:22:42N	103:55:55E	48NUG8117952374	NA48-10	P	PPL		SN	00				N				KAMPONGPASIRRIS	Kampong Pasir Ris	Kampong Pasir Ris	KAMPONGPASIRRIS	Kampong Pasir Ris	Kampong Pasir Ris		1995-07-26	1,2,3,4,5	1			1995-04-26		
5	-73041	-107132	1.390833	103.728611	1:23:27N	103:43:43E	48NUG5855653767	NA48-10	P	PPL		SN	00				N				AIKHONGANDAIKCHIANGESTATE	Aik Hong and Aik Chiang Estate	Aik Hong and Aik Chiang Estate	AIKHONGANDAIKCHIANGESTATE	Aik Hong and Aik Chiang Estate	Aik Hong and Aik Chiang Estate		1995-04-27	1,2,3,4,5	1			1995-03-09		
5	-73273	-107456	1.3	103.866667	1:18:00N	103:52:00E	48NUG7391243718	NA48-10	P	PPLX		SN	00				D				KAMPONGBUGIS	Kampong Bugis	Kampong Bugis	KAMPONGBUGIS	Kampong Bugis	Kampong Bugis		1995-07-26	1,2,3,4,5	1			1993-09-01		
5	-73438	-107657	1.421944	103.706944	1:25:19N	103:42:25E	48NUG5614757208	NA48-10	P	PPLL		SN	00				N				NAMAZIEESTATE	Namazie Estate	Namazie Estate	NAMAZIEESTATE	Namazie Estate	Namazie Estate		1995-04-27	1,2,3,4,5	1			1995-04-25		
5	-73125	-107249	1.395556	103.869167	1:23:44N	103:52:09E	48NUG7419554281	NA48-10	P	PPLL		SN	00				N				BUKITSEMBAWANGESTATE	Bukit Sembawang Estate	Bukit Sembawang Estate	BUKITSEMBAWANGESTATE	Bukit Sembawang Estate	Bukit Sembawang Estate		1995-04-27	1,2,3,4,5	1			1995-04-25		
5	-73315	-107501	1.283333	103.733333	1:17:00N	103:44:00E	48NUG5907541882	NA48-10	P	PPL		SN	00				D				KAMPONGPULAUKECHIL	Kampong Pulau Kechil	Kampong Pulau Kechil	KAMPONGPULAUKECHIL	Kampong Pulau Kechil	Kampong Pulau Kechil		1995-07-26	1,2,3,4,5	1			1993-09-01		
5	-73412	-107626	1.429722	103.7675	1:25:47N	103:46:03E	48NUG6288558064	NA48-10	P	PPLL		SN	00				N				MARSILINGESTATE	Marsiling Estate	Marsiling Estate	MARSILINGESTATE	Marsiling Estate	Marsiling Estate		1995-04-27	1,2,3,4,5	1			1995-04-25		
5	-73342	-107532	1.333333	103.75	1:20:00N	103:45:00E	48NUG6093347409	NA48-10	P	PPL		SN	00				D				KAMPONGTEBINGTERJUN	Kampong Tebing Terjun	Kampong Tebing Terjun	KAMPONGTEBINGTERJUN	Kampong Tebing Terjun	Kampong Tebing Terjun		1995-07-26	1,2,3,4,5	1			1993-09-01		
5	-73329	-107517	1.316667	103.866667	1:19:00N	103:52:00E	48NUG7391345560	NA48-10	P	PPLX		SN	00				D				KAMPONGSOOPOO	Kampong Soopoo	Kampong Soopoo	KAMPONGSOOPOO	Kampong Soopoo	Kampong Soopoo		1995-07-26	1,2,3,4,5	1			1993-09-01		
5	30518	37094	1.356389	103.901389	1:21:23N	103:54:05E	48NUG7777949950	NA48-10	P	PPLX		SN	00				N				CHARLTONPARK	Charlton Park	Charlton Park	CHARLTONPARK	Charlton Park	Charlton Park		1995-07-26	1	1			1993-09-01		
5	30363	36862	1.313889	103.806944	1:18:50N	103:48:25E	48NUG6726845256	NA48-10	P	PPLX		SN	00				N				SOMMERVILLEESTATE	Sommerville Estate	Sommerville Estate	SOMMERVILLEESTATE	Sommerville Estate	Sommerville Estate		1995-07-26	1	1			1993-09-01		
5	30630	37256	1.3325	103.961667	1:19:57N	103:57:42E	48NUG8448447306	NA48-10	P	PPLX		SN	00				N				KAMPONGSEKLIM	Kampong Sek Lim	Kampong Sek Lim	KAMPONGSEKLIM	Kampong Sek Lim	Kampong Sek Lim		1995-07-26	1	1			1993-09-01		
5	-73272	-107455	1.346944	103.965833	1:20:49N	103:57:57E	48NUG8494848902	NA48-10	P	PPLX		SN	00				N				KAMPONGBUGIS	Kampong Bugis	Kampong Bugis	KAMPONGBUGIS	Kampong Bugis	Kampong Bugis		1995-07-26	1,2,3,4,5	1			1993-09-01		
5	-73349	-107539	1.35	103.716667	1:21:00N	103:43:00E	48NUG5722549254	NA48-10	P	PPL		SN	00				D				KAMPONGULUJURONG	Kampong Ulu Jurong	Kampong Ulu Jurong	KAMPONGULUJURONG	Kampong Ulu Jurong	Kampong Ulu Jurong		1995-07-26	1,2,3,4,5	1			1993-09-01		
5	-73593	-107864	1.41	103.874167	1:24:36N	103:52:27E	48NUG7475355878	NA48-10	P	PPL		SN	00				N				SELETAR	Seletar	Seletar	SELETAR	Seletar	Seletar		1996-11-29	1,2,3,4,5	1			1995-04-27		
5	-73196	-107349	1.324722	103.7825	1:19:29N	103:46:57E	48NUG6454846455	NA48-10	P	PPLX		SN	00				N				EWARTPARK	Ewart Park	Ewart Park	EWARTPARK	Ewart Park	Ewart Park		1995-07-26	1,2,3,4,5	1			1993-09-01		
5	-73068	-107167	1.336944	103.663333	1:20:13N	103:39:48E	48NUG5128947813	NA48-10	P	PPLX		SN	00				N				BAJAUESTATE	Bajau Estate	Bajau Estate	BAJAUESTATE	Bajau Estate	Bajau Estate		1995-07-26	1,2,3,4,5	1			1993-09-01		
5	-73147	-107279	1.336667	103.835	1:20:12N	103:50:06E	48NUG7039147773	NA48-10	P	PPLX		SN	00				N				CALDECOTTHILLESTATE	Caldecott Hill Estate	Caldecott Hill Estate	CALDECOTTHILLESTATE	Caldecott Hill Estate	Caldecott Hill Estate		1995-07-26	1,2,3,4,5	1			1993-09-01		
5	-73147	-107278	1.336667	103.835	1:20:12N	103:50:06E	48NUG7039147773	NA48-10	P	PPLX		SN	00				V				CAIDECUTTHILLESTATE	Caidecutt Hill Estate	Caidecutt Hill Estate	CAIDECUTTHILLESTATE	Caidecutt Hill Estate	Caidecutt Hill Estate		1995-07-26	1,2,3,4,5				1993-09-01		
5	-73117	-107239	1.35	103.833333	1:21:00N	103:50:00E	48NUG7020649247	NA48-10	P	PPL		SN	00				D				BRIGHTHILLCRESCENT	Bright Hill Crescent	Bright Hill Crescent	BRIGHTHILLCRESCENT	Bright Hill Crescent	Bright Hill Crescent		1995-07-26	1,2,3,4,5	1			1993-09-01		
5	-73663	-107965	1.438056	103.826667	1:26:17N	103:49:36E	48NUG6946958982	NA48-10	P	PPL		SN	00				V				SUNGEISIMPANGVILLAGE	Sungei Simpang Village	Sungei Simpang Village	SUNGEISIMPANGVILLAGE	Sungei Simpang Village	Sungei Simpang Village		1995-04-27	1,2,3,4,5				1995-04-26		
5	-73663	-107960	1.438056	103.826667	1:26:17N	103:49:36E	48NUG6946958982	NA48-10	P	PPL		SN	00				N				SUNGAISIMPANG	Sungai Simpang	Sungai Simpang	SUNGAISIMPANG	Sungai Simpang	Sungai Simpang		1995-04-27	1,2,3,4,5	1			1995-04-26		
5	-73642	-107931	1.414167	103.950556	1:24:51N	103:57:02E	48NUG8325256335	NA48-10	P	PPLL		SN	00				N				SINWATTESTATE	Sin Watt Estate	Sin Watt Estate	SINWATTESTATE	Sin Watt Estate	Sin Watt Estate		1995-04-27	1,2,3,4,5	1			1995-04-25		
5	-73394	-107600	1.33	103.681389	1:19:48N	103:40:53E	48NUG5329847044	NA48-10	P	PPLX		SN	00				V				LOKYANGVILLAGE	Lokyang Village	Lokyang Village	LOKYANGVILLAGE	Lokyang Village	Lokyang Village		1996-11-29	1,2,3,4,5				1993-09-01		
5	-73394	-107599	1.33	103.681389	1:19:48N	103:40:53E	48NUG5329847044	NA48-10	P	PPLX		SN	00				N				LOKYANG	Lokyang	Lokyang	LOKYANG	Lokyang	Lokyang		1996-11-29	1,2,3,4,5	1			1993-09-01		
5	-73394	-107598	1.33	103.681389	1:19:48N	103:40:53E	48NUG5329847044	NA48-10	P	PPLX		SN	00				V				LOKVANG	Lokvang	Lokvang	LOKVANG	Lokvang	Lokvang		1996-11-29	1,2,3,4,5				1993-09-01		
5	-73357	-107549	1.341944	103.871944	1:20:31N	103:52:19E	48NUG7450248354	NA48-10	P	PPLX		SN	00				N				KAMPONGWOODLEIGH	Kampong Woodleigh	Kampong Woodleigh	KAMPONGWOODLEIGH	Kampong Woodleigh	Kampong Woodleigh		1995-07-26	1,2,3,4,5	1			1993-09-01		
5	30611	37225	1.326667	103.933333	1:19:36N	103:56:00E	48NUG8133146662	NA48-10	P	PPLX		SN	00				N				CHAICHEEESTATE	Chai Chee Estate	Chai Chee Estate	CHAICHEEESTATE	Chai Chee Estate	Chai Chee Estate		1995-07-26	1	1			1993-09-01		
5	-73343	-107533	1.383333	103.65	1:23:00N	103:39:00E	48NUG4980852943	NA48-10	P	PPL		SN	00				D				KAMPONGTELOK	Kampong Telok	Kampong Telok	KAMPONGTELOK	Kampong Telok	Kampong Telok		1995-07-26	1,2,3,4,5	1			1993-09-01		
5	-73339	-107543	1.456667	103.846667	1:27:24N	103:50:48E	48NUG7169561039	NA48-10	P	PPL		SN	00				V				KAMPONGWAHTUANG	Kampong Wah Tuang	Kampong Wah Tuang	KAMPONGWAHTUANG	Kampong Wah Tuang	Kampong Wah Tuang		1995-07-26	1,2,3,4,5				1995-06-21		
5	-73339	-107528	1.456667	103.846667	1:27:24N	103:50:48E	48NUG7169561039	NA48-10	P	PPL		SN	00				D				KAMPONGTANJONGIRAU	Kampong Tanjong Irau	Kampong Tanjong Irau	KAMPONGTANJONGIRAU	Kampong Tanjong Irau	Kampong Tanjong Irau		1995-07-26	1,2,3,4,5	1			1995-06-21		
5	-73375	-107572	1.318333	103.805	1:19:06N	103:48:18E	48NUG6705245748	NA48-10	P	PPLX		SN	00				N				KINGSMEADHALL	Kingsmead Hall	Kingsmead Hall	KINGSMEADHALL	Kingsmead Hall	Kingsmead Hall		1995-07-26	1,2,3,4,5	1			1993-09-01		
5	-73324	-107511	1.406111	104.065833	1:24:22N	104:03:57E	48NUG9607755439	NA48-10	P	PPL		SN	00				N				KAMPONGSANYONKONGPARIT	Kampong Sanyonkong Parit	Kampong Sanyonkong Parit	KAMPONGSANYONKONGPARIT	Kampong Sanyonkong Parit	Kampong Sanyonkong Parit		1995-04-27	1,2,3,4,5	1			1995-04-26		
5	-73324	-107510	1.406111	104.065833	1:24:22N	104:03:57E	48NUG9607755439	NA48-10	P	PPL		SN	00				V				KAMPONGSANYONGKONG	Kampong Sanyongkong	Kampong Sanyongkong	KAMPONGSANYONGKONG	Kampong Sanyongkong	Kampong Sanyongkong		1995-04-27	1,2,3,4,5				1995-04-26		
5	-73256	-107439	1.383333	103.85	1:23:00N	103:51:00E	48NUG7206252931	NA48-10	P	PPL		SN	00				D				KAMPONGAMOYQUEE	Kampong Amoy Quee	Kampong Amoy Quee	KAMPONGAMOYQUEE	Kampong Amoy Quee	Kampong Amoy Quee		1995-07-26	1,2,3,4,5	1			1993-09-01		
5	-73149	-107281	1.327778	103.816389	1:19:40N	103:48:59E	48NUG6831946791	NA48-10	P	PPLX		SN	00				N				CAMDENPARK	Camden Park	Camden Park	CAMDENPARK	Camden Park	Camden Park		1995-07-26	1,2,3,4,5	1			1993-09-01		
5	-73455	-107681	1.35	103.75	1:21:00N	103:45:00E	48NUG6093449252	NA48-10	P	PPL		SN	00				V				ONGLEEVILLAGE	Ong Lee Village	Ong Lee Village	ONGLEEVILLAGE	Ong Lee Village	Ong Lee Village		1995-07-26	1,2,3,4,5				1995-06-21		
5	-73455	-107680	1.35	103.75	1:21:00N	103:45:00E	48NUG6093449252	NA48-10	P	PPL		SN	00				D				ONGLEE	Ong Lee	Ong Lee	ONGLEE	Ong Lee	Ong Lee		1995-07-26	1,2,3,4,5	1			1995-06-21		
5	-73749	-108070	1.316667	103.75	1:19:00N	103:45:00E	48NUG6093245566	NA48-10	P	PPL		SN	00				D				WESTCOASTVILLAGE	West Coast Village	West Coast Village	WESTCOASTVILLAGE	West Coast Village	West Coast Village		1995-07-26	1,2,3,4,5	1			1993-09-01		
5	22309	26996	1.305	103.783333	1:18:18N	103:47:00E	48NUG6464044275	NA48-10	P	PPLX		SN	00				N				AYERRAJANEWTOWN	Ayer Raja New Town	Ayer Raja New Town	AYERRAJANEWTOWN	Ayer Raja New Town	Ayer Raja New Town		1995-07-26	1,2,3,4,5	1			1995-07-26		
5	22309	75127	1.305	103.783333	1:18:18N	103:47:00E	48NUG6464044275	NA48-10	P	PPLX		SN	00				V				AYERRAJAH	Ayer Rajah	Ayer Rajah	AYERRAJAH	Ayer Rajah	Ayer Rajah		1995-07-26	1,2,3,4,5				1995-07-26		
5	30381	36883	1.295556	103.823889	1:17:44N	103:49:26E	48NUG6915243228	NA48-10	P	PPLX		SN	00				N				DRAGONVIEWPARK	Dragon View Park	Dragon View Park	DRAGONVIEWPARK	Dragon View Park	Dragon View Park		1995-07-26	1	1			1993-09-01		
5	-73165	-107304	1.408611	104.050833	1:24:31N	104:03:03E	48NUG9440855716	NA48-10	P	PPLL		SN	00				N				CHIATONGQUAHESTATE	Chia Tong Quah Estate	Chia Tong Quah Estate	CHIATONGQUAHESTATE	Chia Tong Quah Estate	Chia Tong Quah Estate		1995-04-27	1,2,3,4,5	1			1995-04-25		
5	-73211	-107371	1.32	103.91	1:19:12N	103:54:36E	48NUG7873545926	NA48-10	P	PPLX		SN	00				V				GEYLANGSERAIVILLAGE	Geylang Serai Village	Geylang Serai Village	GEYLANGSERAIVILLAGE	Geylang Serai Village	Geylang Serai Village		1995-07-26	1,2,3,4,5				1993-09-01		
5	-73211	-107370	1.32	103.91	1:19:12N	103:54:36E	48NUG7873545926	NA48-10	P	PPLX		SN	00				N				GEYLANGSERAI	Geylang Serai	Geylang Serai	GEYLANGSERAI	Geylang Serai	Geylang Serai		1995-07-26	1,2,3,4,5	1			1993-09-01		
5	30404	36918	1.287222	103.8375	1:17:14N	103:50:15E	48NUG7066642306	NA48-10	P	PPLX		SN	00				N				YORKHILLESTATE	York Hill Estate	York Hill Estate	YORKHILLESTATE	York Hill Estate	York Hill Estate		1995-07-26	1	1			1993-09-01		
5	-73269	-107452	1.381389	103.915833	1:22:53N	103:54:57E	48NUG7938752713	NA48-10	P	PPL		SN	00				N				KAMPONGBEREMBAN	Kampong Beremban	Kampong Beremban	KAMPONGBEREMBAN	Kampong Beremban	Kampong Beremban		1995-04-27	1,2,3,4,5	1			1995-04-27		
5	22467	27177	1.341389	103.739167	1:20:29N	103:44:21E	48NUG5972848300	NA48-10	P	PPLL		SN	00				V				JURONGEAST	Jurong East	Jurong East	JURONGEAST	Jurong East	Jurong East		1995-07-26	1,2,3,4,5				1995-07-26		
5	22467	67302	1.341389	103.739167	1:20:29N	103:44:21E	48NUG5972848300	NA48-10	P	PPLL		SN	00				N		Jurong East		JURONGEASTNEWTOWN	Jurong East New Town	Jurong East New Town	JURONGEASTNEWTOWN	Jurong East New Town	Jurong East New Town		1995-07-26	1,2,3,4,5	1			1995-07-26		
5	27970	33866	1.353333	103.830833	1:21:12N	103:49:51E	48NUG6992849616	NA48-10	P	PPLX		SN	00				N				SOOCHOWGARDEN	Soo Chow Garden	Soo Chow Garden	SOOCHOWGARDEN	Soo Chow Garden	Soo Chow Garden		1995-07-26	1	1			1993-09-01		
5	30309	36777	1.323611	103.789167	1:19:25N	103:47:21E	48NUG6529046332	NA48-10	P	PPLX		SN	00				N				BANGUANPARK	Ban Guan Park	Ban Guan Park	BANGUANPARK	Ban Guan Park	Ban Guan Park		1995-07-26	1	1			1993-09-01		
5	30330	36809	1.320833	103.759722	1:19:15N	103:45:35E	48NUG6201446026	NA48-10	P	PPLX		SN	00				N				FABERHILLS	Faber Hills	Faber Hills	FABERHILLS	Faber Hills	Faber Hills		1995-07-26	1	1			1993-09-01		
5	-73104	-107217	1.320556	103.7975	1:19:14N	103:47:51E	48NUG6621745994	NA48-10	P	PPLX		SN	00				N				BINTONGPARK	Bin Tong Park	Bin Tong Park	BINTONGPARK	Bin Tong Park	Bin Tong Park		1995-07-26	1,2,3,4,5	1			1993-09-01		
5	30341	36828	1.311389	103.797778	1:18:41N	103:47:52E	48NUG6624844980	NA48-10	P	PPLX		SN	00				N				CHINESEGARDENS	Chinese Gardens	Chinese Gardens	CHINESEGARDENS	Chinese Gardens	Chinese Gardens		1995-07-26	1	1			1993-09-01		
5	30379	36881	1.301667	103.826944	1:18:06N	103:49:37E	48NUG6949343904	NA48-10	P	PPLX		SN	00				N				KIMLINPARK	Kimlin Park	Kimlin Park	KIMLINPARK	Kimlin Park	Kimlin Park		1995-07-26	1	1			1993-09-01		
5	-73328	-107516	1.35	103.883333	1:21:00N	103:53:00E	48NUG7576949244	NA48-10	P	PPL		SN	00				D				KAMPONGSIREH	Kampong Sireh	Kampong Sireh	KAMPONGSIREH	Kampong Sireh	Kampong Sireh		1995-07-26	1,2,3,4,5	1			1993-09-01		
5	-73345	-107535	1.421389	104.021667	1:25:17N	104:01:18E	48NUG9116457130	NA48-10	P	PPL		SN	00				N				KAMPONGTODAK	Kampong Todak	Kampong Todak	KAMPONGTODAK	Kampong Todak	Kampong Todak		1995-04-27	1,2,3,4,5	1			1995-04-27		
5	27953	33839	1.357778	103.757778	1:21:28N	103:45:28E	48NUG6179950111	NA48-10	P	PPLX		SN	00				N				BAMBOOGROVEPARK	Bamboo Grove Park	Bamboo Grove Park	BAMBOOGROVEPARK	Bamboo Grove Park	Bamboo Grove Park		1995-07-26	1	1			1993-09-01		
5	-73374	-107571	1.334444	103.779722	1:20:04N	103:46:47E	48NUG6424047530	NA48-10	P	PPLX		SN	00				N				KINGALBERTPARK	King Albert Park	King Albert Park	KINGALBERTPARK	King Albert Park	King Albert Park		1995-07-26	1,2,3,4,5	1			1993-09-01		
5	-73276	-107459	1.383333	104	1:23:00N	104:00:00E	48NUG8875252924	NA48-10	P	PPL		SN	00				D				KAMPONGCHANGI	Kampong Changi	Kampong Changi	KAMPONGCHANGI	Kampong Changi	Kampong Changi		1995-07-26	1,2,3,4,5	1			1993-09-01		
5	-73262	-107445	1.413889	104.072222	1:24:50N	104:04:20E	48NUG9678856298	NA48-10	P	PPL		SN	00				N				KAMPONGAYERSAMAKDARAT	Kampong Ayer Samak Darat	Kampong Ayer Samak Darat	KAMPONGAYERSAMAKDARAT	Kampong Ayer Samak Darat	Kampong Ayer Samak Darat		1995-04-27	1,2,3,4,5	1			1995-04-27		
5	-73678	-107981	1.302222	103.814722	1:18:08N	103:48:53E	48NUG6813343966	NA48-10	P	PPLX		SN	00				N				TANGLINHILL	Tanglin Hill	Tanglin Hill	TANGLINHILL	Tanglin Hill	Tanglin Hill		1995-07-26	1,2,3,4,5	1			1993-09-01		
5	-73304	-107490	1.408333	104.084167	1:24:30N	104:05:03E	48NUG9811755683	NA48-10	P	PPL		SN	00				N				KAMPONGPASIR	Kampong Pasir	Kampong Pasir	KAMPONGPASIR	Kampong Pasir	Kampong Pasir		1995-04-27	1,2,3,4,5	1			1995-04-27		
5	30615	37229	1.328056	103.953333	1:19:41N	103:57:12E	48NUG8355746815	NA48-10	P	PPLX		SN	00				N				SIEWLIMPARK	Siew Lim Park	Siew Lim Park	SIEWLIMPARK	Siew Lim Park	Siew Lim Park		1995-07-26	1	1			1993-09-01		
5	-73176	-107320	1.426111	103.824167	1:25:34N	103:49:27E	48NUG6919057662	NA48-10	P	PPL		SN	00				N				CHYEKAY	Chye Kay	Chye Kay	CHYEKAY	Chye Kay	Chye Kay		1995-04-27	1,2,3,4,5	1			1995-04-27		
5	-73511	-107757	1.298889	103.812222	1:17:56N	103:48:44E	48NUG6785443598	NA48-10	P	PPLX		SN	00				N				PHOENIXPARK	Phoenix Park	Phoenix Park	PHOENIXPARK	Phoenix Park	Phoenix Park		1995-07-26	1,2,3,4,5	1			1993-09-01		
5	-73578	-107845	1.259722	103.808889	1:15:35N	103:48:32E	48NUG6748139268	NA48-10	P	PPL		SN	00				N				SARANGRIMAU	Sarang Rimau	Sarang Rimau	SARANGRIMAU	Sarang Rimau	Sarang Rimau		1995-07-26	1,2,3,4,5	1			1995-07-26		
5	30596	37206	1.348056	103.897222	1:20:53N	103:53:50E	48NUG7731549029	NA48-10	P	PPLX		SN	00				N				RAYAGARDEN	Raya Garden	Raya Garden	RAYAGARDEN	Raya Garden	Raya Garden		1995-07-26	1	1			1993-09-01		
5	30517	37093	1.359444	103.901944	1:21:34N	103:54:07E	48NUG7784150287	NA48-10	P	PPLX		SN	00				N				SOMAPAHSERANGOON	Somapah Serangoon	Somapah Serangoon	SOMAPAHSERANGOON	Somapah Serangoon	Somapah Serangoon		1995-07-26	1	1			1993-09-01		
5	-73255	-107438	1.300278	103.911667	1:18:01N	103:54:42E	48NUG7891943746	NA48-10	P	PPLX		SN	00				N				KAMPONGAMBER	Kampong Amber	Kampong Amber	KAMPONGAMBER	Kampong Amber	Kampong Amber		1995-07-26	1,2,3,4,5	1			1993-09-01		
5	-73680	-107983	1.409167	103.695833	1:24:33N	103:41:45E	48NUG5491055796	NA48-10	P	PPLL		SN	00				N				TANHUAGEKESTATE	Tan Hua Gek Estate	Tan Hua Gek Estate	TANHUAGEKESTATE	Tan Hua Gek Estate	Tan Hua Gek Estate		1995-04-27	1,2,3,4,5	1			1995-04-25		
5	30312	36780	1.321944	103.800833	1:19:19N	103:48:03E	48NUG6658846147	NA48-10	P	PPLX		SN	00				N				REBECCAPARK	Rebecca Park	Rebecca Park	REBECCAPARK	Rebecca Park	Rebecca Park		1995-07-26	1	1			1993-09-01		
5	-73341	-107531	1.378611	103.907778	1:22:43N	103:54:28E	48NUG7849152406	NA48-10	P	PPL		SN	00				N				KAMPONGTEBAN	Kampong Teban	Kampong Teban	KAMPONGTEBAN	Kampong Teban	Kampong Teban		1995-04-27	1,2,3,4,5	1			1995-04-27		
5	-73331	-107519	1.283333	103.783333	1:17:00N	103:47:00E	48NUG6463941879	NA48-10	P	PPLX		SN	00				D				KAMPONGSULTAN	Kampong Sultan	Kampong Sultan	KAMPONGSULTAN	Kampong Sultan	Kampong Sultan		1995-07-26	1,2,3,4,5	1			1993-09-01		
5	-73317	-107503	1.4125	103.910278	1:24:45N	103:54:37E	48NUG7877056152	NA48-10	P	PPL		SN	00				N				KAMPONGPUNGGOL	Kampong Punggol	Kampong Punggol	KAMPONGPUNGGOL	Kampong Punggol	Kampong Punggol		1995-04-27	1,2,3,4,5	1			1995-04-27		
5	-73040	-107131	1.355	103.828889	1:21:18N	103:49:44E	48NUG6971249800	NA48-10	P	PPLX		SN	00				N				ADELPHIPARKESTATE	Adelphi Park Estate	Adelphi Park Estate	ADELPHIPARKESTATE	Adelphi Park Estate	Adelphi Park Estate		1995-07-26	1,2,3,4,5	1			1993-09-01		
5	-73557	-107819	1.323333	103.834167	1:19:24N	103:50:03E	48NUG7029746299	NA48-10	P	PPLX		SN	00				N				MOUNTROSIE	Mount Rosie	Mount Rosie	MOUNTROSIE	Mount Rosie	Mount Rosie		1995-07-26	1,2,3,4,5	1			1993-09-01		
5	-73365	-107562	1.293056	103.784444	1:17:35N	103:47:04E	48NUG6476342954	NA48-10	P	PPLX		SN	00				N				KENTRIDGE	Kent Ridge	Kent Ridge	KENTRIDGE	Kent Ridge	Kent Ridge		1995-07-26	1,2,3,4,5	1			1993-09-01		
5	30671	37320	1.207778	103.777778	1:12:28N	103:46:40E	48NUG6401733527	NA48-10	P	PPL		SN	00				N				KAMPONGSAKENG	Kampong Sakeng	Kampong Sakeng	KAMPONGSAKENG	Kampong Sakeng	Kampong Sakeng		1995-07-26	1	1			1993-09-01		
5	41061	51894	1.372222	103.947778	1:22:20N	103:56:52E	48NUG8294151698	NA48-10	P	PPLX		SN	00				V				PASIRRISVILLAGE	Pasir Ris Village	Pasir Ris Village	PASIRRISVILLAGE	Pasir Ris Village	Pasir Ris Village		1995-07-26	1,2,3,4,5				1995-07-26		
5	41061	75291	1.372222	103.947778	1:22:20N	103:56:52E	48NUG8294151698	NA48-10	P	PPLX		SN	00				V				PASIRRIS	Pasir Ris	Pasir Ris	PASIRRIS	Pasir Ris	Pasir Ris		1995-07-26	1,2,3,4,5				1995-07-26		
5	41061	51893	1.372222	103.947778	1:22:20N	103:56:52E	48NUG8294151698	NA48-10	P	PPLX		SN	00				N				PASIRRISNEWTOWN	Pasir Ris New Town	Pasir Ris New Town	PASIRRISNEWTOWN	Pasir Ris New Town	Pasir Ris New Town		1995-07-26	1,2,3,4,5	1			1995-07-26		
5	-73757	-108087	1.394444	103.753889	1:23:40N	103:45:14E	48NUG6136954165	NA48-10	P	PPL		SN	00				V				YOWTOE	Yow Toe	Yow Toe	YOWTOE	Yow Toe	Yow Toe		1995-04-27	1,2,3,4,5				1995-04-26		
5	-73757	-108082	1.394444	103.753889	1:23:40N	103:45:14E	48NUG6136954165	NA48-10	P	PPL		SN	00				V				YEWTEEVILLAGE	Yew Tee Village	Yew Tee Village	YEWTEEVILLAGE	Yew Tee Village	Yew Tee Village		1995-04-27	1,2,3,4,5				1995-04-26		
5	-73757	-108081	1.394444	103.753889	1:23:40N	103:45:14E	48NUG6136954165	NA48-10	P	PPL		SN	00				N				YEWTEE	Yew Tee	Yew Tee	YEWTEE	Yew Tee	Yew Tee		1995-04-27	1,2,3,4,5	1			1995-04-26		
5	27988	33888	1.355278	103.860833	1:21:19N	103:51:39E	48NUG7326649829	NA48-10	P	PPLX		SN	00				N				TAIHWANGARDENS	Tai Hwan Gardens	Tai Hwan Gardens	TAIHWANGARDENS	Tai Hwan Gardens	Tai Hwan Gardens		1995-07-26	1	1			1993-09-01		
5	-73235	-107402	1.368611	103.931944	1:22:07N	103:55:55E	48NUG8117951299	NA48-10	P	PPLX		SN	00				N				HUNYEANG	Hun Yeang	Hun Yeang	HUNYEANG	Hun Yeang	Hun Yeang		1995-07-26	1,2,3,4,5	1			1993-09-01		
5	-73235	-107403	1.368611	103.931944	1:22:07N	103:55:55E	48NUG8117951299	NA48-10	P	PPLX		SN	00				V				HUNYEANGVILLAGE	Hun Yeang Village	Hun Yeang Village	HUNYEANGVILLAGE	Hun Yeang Village	Hun Yeang Village		1995-07-26	1,2,3,4,5				1993-09-01		
5	-73111	-107231	1.333333	103.7	1:20:00N	103:42:00E	48NUG5536947412	NA48-10	P	PPL		SN	00				D				BOONLAY	Boon Lay	Boon Lay	BOONLAY	Boon Lay	Boon Lay		1995-07-26	1,2,3,4,5	1			1993-09-01		
5	-73613	-107889	1.331944	103.871667	1:19:55N	103:52:18E	48NUG7447047249	NA48-10	P	PPLX		SN	00				N				SENNETTESTATE	Sennett Estate	Sennett Estate	SENNETTESTATE	Sennett Estate	Sennett Estate		1995-07-26	1,2,3,4,5	1			1993-09-01		
5	-73725	-108045	1.321389	103.656667	1:19:17N	103:39:24E	48NUG5054646094	NA48-10	P	PPLX		SN	00				V				TUASVILLAGE	Tuas Village	Tuas Village	TUASVILLAGE	Tuas Village	Tuas Village		1996-11-29	1,2,3,4,5,6				1993-09-01		
5	-73725	-108042	1.321389	103.656667	1:19:17N	103:39:24E	48NUG5054646094	NA48-10	P	PPLX		SN	00				N				TUAS	Tuas	Tuas	TUAS	Tuas	Tuas		1996-11-29	1,2,3,4,5,6	1			1993-09-01		
5	26781	32343	1.386111	103.895	1:23:10N	103:53:42E	48NUG7706953236	NA48-10	P	PPLL		SN	00				N				BUKITSEMBAWANGESTATE	Bukit Sembawang Estate	Bukit Sembawang Estate	BUKITSEMBAWANGESTATE	Bukit Sembawang Estate	Bukit Sembawang Estate		1995-04-27	1	1			1995-04-25		
5	23437	28249	1.350833	103.870833	1:21:03N	103:52:15E	48NUG7437849337	NA48-10	P	PPLX		SN	00				N		Serangoon		SERANGOONNEWTOWN	Serangoon New Town	Serangoon New Town	SERANGOONNEWTOWN	Serangoon New Town	Serangoon New Town		1995-07-26	1,2,3,4,5	1			1995-07-26		
5	23437	75321	1.350833	103.870833	1:21:03N	103:52:15E	48NUG7437849337	NA48-10	P	PPLX		SN	00				V				SERANGOON	Serangoon	Serangoon	SERANGOON	Serangoon	Serangoon		1995-07-26	1,2,3,4,5				1995-07-26		
5	-73122	-107245	1.284167	103.823056	1:17:03N	103:49:23E	48NUG6905941969	NA48-10	P	PPLX		SN	00				N				BUKITMERAHESTATE	Bukit Merah Estate	Bukit Merah Estate	BUKITMERAHESTATE	Bukit Merah Estate	Bukit Merah Estate		1995-04-26	1,2,3,4,5	1			1993-09-01		
5	-73417	-107633	1.399444	103.902778	1:23:58N	103:54:10E	48NUG7793554709	NA48-10	P	PPLL		SN	00				N				MATILDAESTATE	Matilda Estate	Matilda Estate	MATILDAESTATE	Matilda Estate	Matilda Estate		1995-04-27	1,2,3,4,5	1			1995-04-25		
5	-73644	-107936	1.341667	103.963611	1:20:30N	103:57:49E	48NUG8470148319	NA48-10	P	PPLX		SN	00				N				SOMAPAHCHANGI	Somapah Changi	Somapah Changi	SOMAPAHCHANGI	Somapah Changi	Somapah Changi		1995-07-26	1,2,3,4,5	1			1993-09-01		
5	-73644	-107287	1.341667	103.963611	1:20:30N	103:57:49E	48NUG8470148319	NA48-10	P	PPLX		SN	00				V				CHANGI	Changi	Changi	CHANGI	Changi	Changi		1995-07-26	1,2,3,4,5				1993-09-01		
5	-73644	-107937	1.341667	103.963611	1:20:30N	103:57:49E	48NUG8470148319	NA48-10	P	PPLX		SN	00				V				SOMAPAHCHANGIVILLAGE	Somapah Changi Village	Somapah Changi Village	SOMAPAHCHANGIVILLAGE	Somapah Changi Village	Somapah Changi Village		1995-07-26	1,2,3,4,5				1993-09-01		
5	-73282	-107466	1.266667	103.816667	1:16:00N	103:49:00E	48NUG6834740035	NA48-10	P	PPLX		SN	00				D				KAMPONGJAGOH	Kampong Jagoh	Kampong Jagoh	KAMPONGJAGOH	Kampong Jagoh	Kampong Jagoh		1995-07-26	1,2,3,4,5	1			1993-09-01		
5	30578	37173	1.343611	103.958611	1:20:37N	103:57:31E	48NUG8414548534	NA48-10	P	PPLX		SN	00				N				KAMPONGHARVEY	Kampong Harvey	Kampong Harvey	KAMPONGHARVEY	Kampong Harvey	Kampong Harvey		1995-07-26	1	1			1993-09-01		
5	-73616	-107900	1.362778	103.8975	1:21:46N	103:53:51E	48NUG7734650656	NA48-10	P	PPLX		SN	00				V				SERANGOONVILLAGE	Serangoon Village	Serangoon Village	SERANGOONVILLAGE	Serangoon Village	Serangoon Village		1996-11-29	1,2,3,4,5,6				1993-09-01		
