<?xml version="1.0" encoding="UTF-8" standalone="no"?>
<geonames style="MEDIUM">
<totalResultsCount>2012</totalResultsCount>
<geoname>
<toponymName>Singapore</toponymName>
<name>Singapore</name>
<lat>1.28967</lat>
<lng>103.85007</lng>
<geonameId>1880252</geonameId>
<countryCode>SG</countryCode>
<countryName>Singapore</countryName>
<fcl>P</fcl>
<fcode>PPLC</fcode>
</geoname>
<geoname>
<toponymName>Republic of Singapore</toponymName>
<name>Singapore</name>
<lat>1.36667</lat>
<lng>103.8</lng>
<geonameId>1880251</geonameId>
<countryCode>SG</countryCode>
<countryName>Singapore</countryName>
<fcl>A</fcl>
<fcode>PCLI</fcode>
</geoname>
<geoname>
<toponymName>Singapore Changi Airport</toponymName>
<name>Singapore Changi Airport</name>
<lat>1.35514</lat>
<lng>103.99006</lng>
<geonameId>1880725</geonameId>
<countryCode>SG</countryCode>
<countryName>Singapore</countryName>
<fcl>S</fcl>
<fcode>AIRP</fcode>
</geoname>
<geoname>
<toponymName>Central Singapore Community Development Council</toponymName>
<name>Central Singapore Community Development Council</name>
<lat>1.29868</lat>
<lng>103.85367</lng>
<geonameId>7535954</geonameId>
<countryCode>SG</countryCode>
<countryName>Singapore</countryName>
<fcl>A</fcl>
<fcode>ADM1</fcode>
</geoname>
<geoname>
<toponymName>National University of Singapore</toponymName>
<name>National University of Singapore</name>
<lat>1.29611</lat>
<lng>103.77972</lng>
<geonameId>1882705</geonameId>
<countryCode>SG</countryCode>
<countryName>Singapore</countryName>
<fcl>S</fcl>
<fcode>SCHC</fcode>
</geoname>
<geoname>
<toponymName>Singapore River</toponymName>
<name>Singapore River</name>
<lat>1.28667</lat>
<lng>103.8525</lng>
<geonameId>1880248</geonameId>
<countryCode>SG</countryCode>
<countryName>Singapore</countryName>
<fcl>H</fcl>
<fcode>STM</fcode>
</geoname>
<geoname>
<toponymName>Keppel Terminal</toponymName>
<name>Singapore Harbourfront Ferry Port</name>
<lat>1.265</lat>
<lng>103.82528</lng>
<geonameId>1885154</geonameId>
<countryCode>SG</countryCode>
<countryName>Singapore</countryName>
<fcl>L</fcl>
<fcode>PRT</fcode>
</geoname>
<geoname>
<toponymName>Universal Studios Singapore</toponymName>
<name>Universal Studios Singapore</name>
<lat>1.25573</lat>
<lng>103.82102</lng>
<geonameId>8436367</geonameId>
<countryCode>SG</countryCode>
<countryName>Singapore</countryName>
<fcl>L</fcl>
<fcode>AMUS</fcode>
</geoname>
<geoname>
<toponymName>Singapore Island</toponymName>
<name>Singapore Island</name>
<lat>1.36667</lat>
<lng>103.8</lng>
<geonameId>1880249</geonameId>
<countryCode>SG</countryCode>
<countryName>Singapore</countryName>
<fcl>T</fcl>
<fcode>ISL</fcode>
</geoname>
<geoname>
<toponymName>Botanic Gardens</toponymName>
<name>Singapore Botanic Gardens</name>
<lat>1.31028</lat>
<lng>103.81639</lng>
<geonameId>1881920</geonameId>
<countryCode>SG</countryCode>
<countryName>Singapore</countryName>
<fcl>L</fcl>
<fcode>RESN</fcode>
</geoname>
<geoname>
<toponymName>Mount Faber</toponymName>
<name>Mount Faber</name>
<lat>1.27564</lat>
<lng>103.81669</lng>
<geonameId>1882739</geonameId>
<countryCode>SG</countryCode>
<countryName>Singapore</countryName>
<fcl>T</fcl>
<fcode>HLL</fcode>
</geoname>
<geoname>
<toponymName>Chinatown Singapore</toponymName>
<name>Chinatown</name>
<lat>1.2824</lat>
<lng>103.844</lng>
<geonameId>6942288</geonameId>
<countryCode>SG</countryCode>
<countryName>Singapore</countryName>
<fcl>L</fcl>
<fcode>AREA</fcode>
</geoname>
<geoname>
<toponymName>Singapore Container Terminal</toponymName>
<name>Singapore Container Terminal</name>
<lat>1.28328</lat>
<lng>103.7736</lng>
<geonameId>11524256</geonameId>
<countryCode>SG</countryCode>
<countryName>Singapore</countryName>
<fcl>L</fcl>
<fcode>PRT</fcode>
</geoname>
<geoname>
<toponymName>Paya Lebar Airport</toponymName>
<name>Paya Lebar Airport</name>
<lat>1.36083</lat>
<lng>103.90944</lng>
<geonameId>1880250</geonameId>
<countryCode>SG</countryCode>
<countryName>Singapore</countryName>
<fcl>S</fcl>
<fcode>AIRP</fcode>
</geoname>
<geoname>
<toponymName>Bukit Timah</toponymName>
<name>Bukit Timah Hill</name>
<lat>1.3547</lat>
<lng>103.7764</lng>
<geonameId>1880179</geonameId>
<countryCode>SG</countryCode>
<countryName>Singapore</countryName>
<fcl>T</fcl>
<fcode>HLL</fcode>
</geoname>
<geoname>
<toponymName>Mount Serapong</toponymName>
<name>Mount Serapong</name>
<lat>1.24694</lat>
<lng>103.82385</lng>
<geonameId>1880265</geonameId>
<countryCode>SG</countryCode>
<countryName>Singapore</countryName>
<fcl>T</fcl>
<fcode>HLL</fcode>
</geoname>
<geoname>
<toponymName>Bukit Gombak</toponymName>
<name>Bukit Gombak</name>
<lat>1.36417</lat>
<lng>103.75722</lng>
<geonameId>1882548</geonameId>
<countryCode>SG</countryCode>
<countryName>Singapore</countryName>
<fcl>T</fcl>
<fcode>HLL</fcode>
</geoname>
<geoname>
<toponymName>Chijmes</toponymName>
<name>Chijmes</name>
<lat>1.29514</lat>
<lng>103.852</lng>
<geonameId>6951473</geonameId>
<countryCode>SG</countryCode>
<countryName>Singapore</countryName>
<fcl>L</fcl>
<fcode>RGNE</fcode>
</geoname>
<geoname>
<toponymName>MacPherson</toponymName>
<name>MacPherson</name>
<lat>1.32713</lat>
<lng>103.88413</lng>
<geonameId>1882033</geonameId>
<countryCode>SG</countryCode>
<countryName>Singapore</countryName>
<fcl>P</fcl>
<fcode>PPL</fcode>
</geoname>
<geoname>
<toponymName>Orchard</toponymName>
<name>Orchard</name>
<lat>1.30256</lat>
<lng>103.83469</lng>
<geonameId>7289740</geonameId>
<countryCode>SG</countryCode>
<countryName>Singapore</countryName>
<fcl>P</fcl>
<fcode>PPL</fcode>
</geoname>
<geoname>
<toponymName>Bukit Timah</toponymName>
<name>Bukit Timah</name>
<lat>1.34184</lat>
<lng>103.77394</lng>
<geonameId>7289743</geonameId>
<countryCode>SG</countryCode>
<countryName>Singapore</countryName>
<fcl>P</fcl>
<fcode>PPL</fcode>
</geoname>
<geoname>
<toponymName>Newton</toponymName>
<name>Newton</name>
<lat>1.30902</lat>
<lng>103.83757</lng>
<geonameId>7289746</geonameId>
<countryCode>SG</countryCode>
<countryName>Singapore</countryName>
<fcl>P</fcl>
<fcode>PPL</fcode>
</geoname>
<geoname>
<toponymName>HarbourFront</toponymName>
<name>HarbourFront</name>
<lat>1.2652</lat>
<lng>103.8201</lng>
<geonameId>7289766</geonameId>
<countryCode>SG</countryCode>
<countryName>Singapore</countryName>
<fcl>P</fcl>
<fcode>PPL</fcode>
</geoname>
<geoname>
<toponymName>Central Singapore District</toponymName>
<name>Central Singapore District</name>
<lat>1.31667</lat>
<lng>103.83333</lng>
<geonameId>11605743</geonameId>
<countryCode>SG</countryCode>
<countryName>Singapore</countryName>
<fcl>A</fcl>
<fcode>ADMD</fcode>
</geoname>
<geoname>
<toponymName>Marina Bay Street Circuit</toponymName>
<name>Marina Bay Street Circuit</name>
<lat>1.29156</lat>
<lng>103.86395</lng>
<geonameId>8394304</geonameId>
<countryCode>SG</countryCode>
<countryName>Singapore</countryName>
<fcl>S</fcl>
<fcode>RECR</fcode>
</geoname>
<geoname>
<toponymName>Singapore Zoological Gardens</toponymName>
<name>Singapore Zoological Gardens</name>
<lat>1.40389</lat>
<lng>103.79389</lng>
<geonameId>1882106</geonameId>
<countryCode>SG</countryCode>
<countryName>Singapore</countryName>
<fcl>L</fcl>
<fcode>RESN</fcode>
</geoname>
<geoname>
<toponymName>Singāpur</toponymName>
<name>Singāpur</name>
<lat>17.46982</lat>
<lng>78.12574</lng>
<geonameId>1445156</geonameId>
<countryCode>IN</countryCode>
<countryName>India</countryName>
<fcl>P</fcl>
<fcode>PPL</fcode>
</geoname>
<geoname>
<toponymName>Lac Singapore</toponymName>
<name>Lac Singapore</name>
<lat>48.00361</lat>
<lng>-75.28306</lng>
<geonameId>6042725</geonameId>
<countryCode>CA</countryCode>
<countryName>Canada</countryName>
<fcl>H</fcl>
<fcode>LK</fcode>
</geoname>
<geoname>
<toponymName>Japanese Garden</toponymName>
<name>Jurong Gardens</name>
<lat>1.33528</lat>
<lng>103.73111</lng>
<geonameId>1882508</geonameId>
<countryCode>SG</countryCode>
<countryName>Singapore</countryName>
<fcl>L</fcl>
<fcode>RESN</fcode>
</geoname>
<geoname>
<toponymName>South West Community Development Council</toponymName>
<name>South West Community Development Council</name>
<lat>1.31464</lat>
<lng>103.83007</lng>
<geonameId>7535957</geonameId>
<countryCode>SG</countryCode>
<countryName>Singapore</countryName>
<fcl>A</fcl>
<fcode>ADM1</fcode>
</geoname>
<geoname>
<toponymName>Tanjong Pagar</toponymName>
<name>Tanjong Pagar</name>
<lat>1.28333</lat>
<lng>103.83333</lng>
<geonameId>1880131</geonameId>
<countryCode>SG</countryCode>
<countryName>Singapore</countryName>
<fcl>P</fcl>
<fcode>PPL</fcode>
</geoname>
<geoname>
<toponymName>Singapore Strait</toponymName>
<name>Singapore Strait</name>
<lat>1.23175</lat>
<lng>103.94131</lng>
<geonameId>1880132</geonameId>
<countryCode>SG</countryCode>
<countryName>Singapore</countryName>
<fcl>H</fcl>
<fcode>STRT</fcode>
</geoname>
<geoname>
<toponymName>Singapore Railway Station</toponymName>
<name>Singapore railway station</name>
<lat>1.27306</lat>
<lng>103.83639</lng>
<geonameId>1882737</geonameId>
<countryCode>SG</countryCode>
<countryName>Singapore</countryName>
<fcl>S</fcl>
<fcode>RSTN</fcode>
</geoname>
<geoname>
<toponymName>Singapore Science Centre</toponymName>
<name>Singapore Science Centre</name>
<lat>1.33278</lat>
<lng>103.73583</lng>
<geonameId>1882513</geonameId>
<countryCode>SG</countryCode>
<countryName>Singapore</countryName>
<fcl>S</fcl>
<fcode>BLDG</fcode>
</geoname>
<geoname>
<toponymName>Singapore General Hospital</toponymName>
<name>Singapore General Hospital</name>
<lat>1.28056</lat>
<lng>103.83667</lng>
<geonameId>1882713</geonameId>
<countryCode>SG</countryCode>
<countryName>Singapore</countryName>
<fcl>S</fcl>
<fcode>HSP</fcode>
</geoname>
<geoname>
<toponymName>Singapore Aviation Academy</toponymName>
<name>Singapore Aviation Academy</name>
<lat>1.38889</lat>
<lng>103.99056</lng>
<geonameId>1885285</geonameId>
<countryCode>SG</countryCode>
<countryName>Singapore</countryName>
<fcl>S</fcl>
<fcode>SCH</fcode>
</geoname>
<geoname>
<toponymName>Shangri-La Hotel Singapore</toponymName>
<name>Shangri-La Hotel Singapore</name>
<lat>1.311</lat>
<lng>103.8265</lng>
<geonameId>6490258</geonameId>
<countryCode>SG</countryCode>
<countryName>Singapore</countryName>
<fcl>S</fcl>
<fcode>HTL</fcode>
</geoname>
<geoname>
<toponymName>The Fullerton Hotel Singapore</toponymName>
<name>The Fullerton Hotel Singapore</name>
<lat>1.2833</lat>
<lng>103.85</lng>
<geonameId>6506748</geonameId>
<countryCode>SG</countryCode>
<countryName>Singapore</countryName>
<fcl>S</fcl>
<fcode>HTL</fcode>
</geoname>
<geoname>
<toponymName>Nationalmuseum Singapur</toponymName>
<name>National Museum of Singapore</name>
<lat>1.29672</lat>
<lng>103.849</lng>
<geonameId>6951479</geonameId>
<countryCode>SG</countryCode>
<countryName>Singapore</countryName>
<fcl>S</fcl>
<fcode>MUS</fcode>
</geoname>
<geoname>
<toponymName>Bukit Kalang</toponymName>
<name>Bukit Kalang</name>
<lat>1.36139</lat>
<lng>103.80944</lng>
<geonameId>1880627</geonameId>
<countryCode>SG</countryCode>
<countryName>Singapore</countryName>
<fcl>T</fcl>
<fcode>HLL</fcode>
</geoname>
<geoname>
<toponymName>Bukit Batok</toponymName>
<name>Bukit Batok</name>
<lat>1.35167</lat>
<lng>103.76556</lng>
<geonameId>1880794</geonameId>
<countryCode>SG</countryCode>
<countryName>Singapore</countryName>
<fcl>T</fcl>
<fcode>HLL</fcode>
</geoname>
<geoname>
<toponymName>Mountbatten</toponymName>
<name>Mountbatten</name>
<lat>1.30583</lat>
<lng>103.88222</lng>
<geonameId>1882041</geonameId>
<countryCode>SG</countryCode>
<countryName>Singapore</countryName>
<fcl>L</fcl>
<fcode>LCTY</fcode>
</geoname>
<geoname>
<toponymName>Tampines</toponymName>
<name>Tampines</name>
<lat>1.37472</lat>
<lng>103.94528</lng>
<geonameId>1882114</geonameId>
<countryCode>SG</countryCode>
<countryName>Singapore</countryName>
<fcl>L</fcl>
<fcode>LCTY</fcode>
</geoname>
<geoname>
<toponymName>Jurong Island</toponymName>
<name>Jurong Island</name>
<lat>1.26667</lat>
<lng>103.69583</lng>
<geonameId>7289733</geonameId>
<countryCode>SG</countryCode>
<countryName>Singapore</countryName>
<fcl>L</fcl>
<fcode>AREA</fcode>
</geoname>
<geoname>
<toponymName>City Hall (Singapore)</toponymName>
<name>Singapore City Hall</name>
<lat>1.29056</lat>
<lng>103.852</lng>
<geonameId>6951474</geonameId>
<countryCode>SG</countryCode>
<countryName>Singapore</countryName>
<fcl>S</fcl>
<fcode>ADMF</fcode>
</geoname>
<geoname>
<toponymName>Conrad Centennial Singapore</toponymName>
<name>Conrad Centennial Singapore</name>
<lat>1.2937</lat>
<lng>103.8585</lng>
<geonameId>6475037</geonameId>
<countryCode>SG</countryCode>
<countryName>Singapore</countryName>
<fcl>S</fcl>
<fcode>HTL</fcode>
</geoname>
<geoname>
<toponymName>Singapore Highway Strip Pioneer</toponymName>
<name>Singapore Highway Strip Pioneer</name>
<lat>1.3225</lat>
<lng>103.64889</lng>
<geonameId>1882532</geonameId>
<countryCode>SG</countryCode>
<countryName>Singapore</countryName>
<fcl>S</fcl>
<fcode>AIRP</fcode>
</geoname>
<geoname>
<toponymName>Kolam Air Singapura</toponymName>
<name>Kolam Air Singapura</name>
<lat>1.5486</lat>
<lng>103.5269</lng>
<geonameId>7857962</geonameId>
<countryCode>MY</countryCode>
<countryName>Malaysia</countryName>
<fcl>H</fcl>
<fcode>LK</fcode>
</geoname>
<geoname>
<toponymName>Marina Bay Cruise Centre Singapore</toponymName>
<name>Marina Bay Cruise Centre Singapore</name>
<lat>1.26564</lat>
<lng>103.86052</lng>
<geonameId>11185300</geonameId>
<countryCode>SG</countryCode>
<countryName>Singapore</countryName>
<fcl>S</fcl>
<fcode>FY</fcode>
</geoname>
<geoname>
<toponymName>Tengah Air Base</toponymName>
<name>Tengah AB</name>
<lat>1.3856</lat>
<lng>103.70836</lng>
<geonameId>1880195</geonameId>
<countryCode>SG</countryCode>
<countryName>Singapore</countryName>
<fcl>S</fcl>
<fcode>AIRP</fcode>
</geoname>
<geoname>
<toponymName>Siglap</toponymName>
<name>Siglap</name>
<lat>1.31417</lat>
<lng>103.93639</lng>
<geonameId>1880260</geonameId>
<countryCode>SG</countryCode>
<countryName>Singapore</countryName>
<fcl>L</fcl>
<fcode>LCTY</fcode>
</geoname>
<geoname>
<toponymName>East Coast Park</toponymName>
<name>East Coast Park</name>
<lat>1.31417</lat>
<lng>103.93417</lng>
<geonameId>1880690</geonameId>
<countryCode>SG</countryCode>
<countryName>Singapore</countryName>
<fcl>L</fcl>
<fcode>RESN</fcode>
</geoname>
<geoname>
<toponymName>Haw Par Villa</toponymName>
<name>Haw Par Villa</name>
<lat>1.28528</lat>
<lng>103.78278</lng>
<geonameId>1881926</geonameId>
<countryCode>SG</countryCode>
<countryName>Singapore</countryName>
<fcl>L</fcl>
<fcode>RESN</fcode>
</geoname>
<geoname>
<toponymName>Hong Lim Park</toponymName>
<name>Hong Lim Park</name>
<lat>1.28528</lat>
<lng>103.84528</lng>
<geonameId>1881947</geonameId>
<countryCode>SG</countryCode>
<countryName>Singapore</countryName>
<fcl>L</fcl>
<fcode>RESN</fcode>
</geoname>
<geoname>
<toponymName>Jurong Bird Park</toponymName>
<name>Jurong Bird Park</name>
<lat>1.31917</lat>
<lng>103.70611</lng>
<geonameId>1881951</geonameId>
<countryCode>SG</countryCode>
<countryName>Singapore</countryName>
<fcl>L</fcl>
<fcode>RESN</fcode>
</geoname>
<geoname>
<toponymName>Labrador Nature Reserve</toponymName>
<name>Labrador Nature Reserve</name>
<lat>1.26583</lat>
<lng>103.80194</lng>
<geonameId>1881972</geonameId>
<countryCode>SG</countryCode>
<countryName>Singapore</countryName>
<fcl>L</fcl>
<fcode>RESN</fcode>
</geoname>
<geoname>
<toponymName>Bras Basah</toponymName>
<name>Bras Basah</name>
<lat>1.29333</lat>
<lng>103.85889</lng>
<geonameId>1882000</geonameId>
<countryCode>SG</countryCode>
<countryName>Singapore</countryName>
<fcl>L</fcl>
<fcode>LCTY</fcode>
</geoname>
<geoname>
<toponymName>Bukit Ho Swee</toponymName>
<name>Bukit Ho Swee</name>
<lat>1.28694</lat>
<lng>103.83111</lng>
<geonameId>1882002</geonameId>
<countryCode>SG</countryCode>
<countryName>Singapore</countryName>
<fcl>L</fcl>
<fcode>LCTY</fcode>
</geoname>
<geoname>
<toponymName>Geylang East</toponymName>
<name>Geylang East</name>
<lat>1.31583</lat>
<lng>103.88861</lng>
<geonameId>1882010</geonameId>
<countryCode>SG</countryCode>
<countryName>Singapore</countryName>
<fcl>L</fcl>
<fcode>LCTY</fcode>
</geoname>
<geoname>
<toponymName>Kampong Glam</toponymName>
<name>Kampong Glam</name>
<lat>1.30222</lat>
<lng>103.86444</lng>
<geonameId>1882020</geonameId>
<countryCode>SG</countryCode>
<countryName>Singapore</countryName>
<fcl>L</fcl>
<fcode>LCTY</fcode>
</geoname>
<geoname>
<toponymName>Pasir Panjang</toponymName>
<name>Pasir Panjang</name>
<lat>1.25694</lat>
<lng>103.77444</lng>
<geonameId>1882047</geonameId>
<countryCode>SG</countryCode>
<countryName>Singapore</countryName>
<fcl>L</fcl>
<fcode>LCTY</fcode>
</geoname>
<geoname>
<toponymName>Paya Lebar</toponymName>
<name>Paya Lebar</name>
<lat>1.3475</lat>
<lng>103.9</lng>
<geonameId>1882048</geonameId>
<countryCode>SG</countryCode>
<countryName>Singapore</countryName>
<fcl>L</fcl>
<fcode>LCTY</fcode>
</geoname>
<geoname>
<toponymName>Punggol</toponymName>
<name>Punggol</name>
<lat>1.39278</lat>
<lng>103.9</lng>
<geonameId>1882075</geonameId>
<countryCode>SG</countryCode>
<countryName>Singapore</countryName>
<fcl>L</fcl>
<fcode>LCTY</fcode>
</geoname>
<geoname>
<toponymName>Telok Blangah</toponymName>
<name>Telok Blangah</name>
<lat>1.24806</lat>
<lng>103.8375</lng>
<geonameId>1882121</geonameId>
<countryCode>SG</countryCode>
<countryName>Singapore</countryName>
<fcl>L</fcl>
<fcode>LCTY</fcode>
</geoname>
<geoname>
<toponymName>Changi Beach Park</toponymName>
<name>Changi Beach Park</name>
<lat>1.39028</lat>
<lng>103.99444</lng>
<geonameId>1882435</geonameId>
<countryCode>SG</countryCode>
<countryName>Singapore</countryName>
<fcl>L</fcl>
<fcode>PRK</fcode>
</geoname>
<geoname>
<toponymName>Chinese Garden</toponymName>
<name>Chinese Garden</name>
<lat>1.33861</lat>
<lng>103.73</lng>
<geonameId>1882507</geonameId>
<countryCode>SG</countryCode>
<countryName>Singapore</countryName>
<fcl>L</fcl>
<fcode>RESN</fcode>
</geoname>
<geoname>
<toponymName>Sembawang End Park</toponymName>
<name>Sembawang End Park</name>
<lat>1.46361</lat>
<lng>103.83694</lng>
<geonameId>1884204</geonameId>
<countryCode>SG</countryCode>
<countryName>Singapore</countryName>
<fcl>L</fcl>
<fcode>PRK</fcode>
</geoname>
<geoname>
<toponymName>Jurong Lake</toponymName>
<name>Jurong Lake</name>
<lat>1.34194</lat>
<lng>103.72639</lng>
<geonameId>1884287</geonameId>
<countryCode>SG</countryCode>
<countryName>Singapore</countryName>
<fcl>H</fcl>
<fcode>LK</fcode>
</geoname>
<geoname>
<toponymName>Bishan Park</toponymName>
<name>Bishan Park</name>
<lat>1.36528</lat>
<lng>103.83583</lng>
<geonameId>1884298</geonameId>
<countryCode>SG</countryCode>
<countryName>Singapore</countryName>
<fcl>L</fcl>
<fcode>PRK</fcode>
</geoname>
<geoname>
<toponymName>Gold Hill</toponymName>
<name>Gold Hill</name>
<lat>1.32009</lat>
<lng>103.8325</lng>
<geonameId>1884306</geonameId>
<countryCode>SG</countryCode>
<countryName>Singapore</countryName>
<fcl>T</fcl>
<fcode>HLL</fcode>
</geoname>
<geoname>
<toponymName>Kent Ridge Park</toponymName>
<name>Kent Ridge Park</name>
<lat>1.28639</lat>
<lng>103.79</lng>
<geonameId>1884315</geonameId>
<countryCode>SG</countryCode>
<countryName>Singapore</countryName>
<fcl>L</fcl>
<fcode>PRK</fcode>
</geoname>
<geoname>
<toponymName>Bedok Town Park</toponymName>
<name>Bedok Town Park</name>
<lat>1.33694</lat>
<lng>103.93833</lng>
<geonameId>1884343</geonameId>
<countryCode>SG</countryCode>
<countryName>Singapore</countryName>
<fcl>L</fcl>
<fcode>PRK</fcode>
</geoname>
<geoname>
<toponymName>Symphony Lake</toponymName>
<name>Symphony Lake</name>
<lat>1.31444</lat>
<lng>103.81472</lng>
<geonameId>1885256</geonameId>
<countryCode>SG</countryCode>
<countryName>Singapore</countryName>
<fcl>H</fcl>
<fcode>LK</fcode>
</geoname>
<geoname>
<toponymName>Singapore Naval Base (historical)</toponymName>
<name>HMNB Singapore</name>
<lat>1.46699</lat>
<lng>103.83063</lng>
<geonameId>9645379</geonameId>
<countryCode>SG</countryCode>
<countryName>Singapore</countryName>
<fcl>S</fcl>
<fcode>INSM</fcode>
</geoname>
<geoname>
<toponymName>Keppel Harbour</toponymName>
<name>Keppel Harbour</name>
<lat>1.26477</lat>
<lng>103.83021</lng>
<geonameId>1880514</geonameId>
<countryCode>SG</countryCode>
<countryName>Singapore</countryName>
<fcl>H</fcl>
<fcode>HBR</fcode>
</geoname>
<geoname>
<toponymName>Kawasan Tadah Bekalan Air Singapura</toponymName>
<name>Kawasan Tadah Bekalan Air Singapura</name>
<lat>1.5707</lat>
<lng>103.5474</lng>
<geonameId>7857950</geonameId>
<countryCode>MY</countryCode>
<countryName>Malaysia</countryName>
<fcl>L</fcl>
<fcode>BSND</fcode>
</geoname>
<geoname>
<toponymName>Seletar Airport</toponymName>
<name>Seletar Airport</name>
<lat>1.41722</lat>
<lng>103.86583</lng>
<geonameId>1880295</geonameId>
<countryCode>SG</countryCode>
<countryName>Singapore</countryName>
<fcl>S</fcl>
<fcode>AIRF</fcode>
</geoname>
<geoname>
<toponymName>Holland Village</toponymName>
<name>Holland Village</name>
<lat>1.31194</lat>
<lng>103.79333</lng>
<geonameId>1880651</geonameId>
<countryCode>SG</countryCode>
<countryName>Singapore</countryName>
<fcl>P</fcl>
<fcode>PPLX</fcode>
</geoname>
<geoname>
<toponymName>Bishan New Town</toponymName>
<name>Bishan</name>
<lat>1.3504</lat>
<lng>103.84875</lng>
<geonameId>1881919</geonameId>
<countryCode>SG</countryCode>
<countryName>Singapore</countryName>
<fcl>P</fcl>
<fcode>PPLX</fcode>
</geoname>
<geoname>
<toponymName>Simei New Town</toponymName>
<name>Simei New Town</name>
<lat>1.34111</lat>
<lng>103.95611</lng>
<geonameId>1882103</geonameId>
<countryCode>SG</countryCode>
<countryName>Singapore</countryName>
<fcl>P</fcl>
<fcode>PPLX</fcode>
</geoname>
<geoname>
<toponymName>Tampines New Town</toponymName>
<name>Tampines New Town</name>
<lat>1.34917</lat>
<lng>103.94972</lng>
<geonameId>1882115</geonameId>
<countryCode>SG</countryCode>
<countryName>Singapore</countryName>
<fcl>P</fcl>
<fcode>PPLX</fcode>
</geoname>
<geoname>
<toponymName>Mount Emily Park</toponymName>
<name>Mount Emily Park</name>
<lat>1.30472</lat>
<lng>103.84722</lng>
<geonameId>1882719</geonameId>
<countryCode>SG</countryCode>
<countryName>Singapore</countryName>
<fcl>P</fcl>
<fcode>PPLX</fcode>
</geoname>
<geoname>
<toponymName>Raffles Place</toponymName>
<name>Raffles Place</name>
<lat>1.28495</lat>
<lng>103.85148</lng>
<geonameId>7289749</geonameId>
<countryCode>SG</countryCode>
<countryName>Singapore</countryName>
<fcl>P</fcl>
<fcode>PPLX</fcode>
</geoname>
<geoname>
<toponymName>Gallery Hotel</toponymName>
<name>Gallery Hotel</name>
<lat>1.2898</lat>
<lng>103.8384</lng>
<geonameId>6464644</geonameId>
<countryCode>SG</countryCode>
<countryName>Singapore</countryName>
<fcl>S</fcl>
<fcode>HTL</fcode>
</geoname>
<geoname>
<toponymName>Marina Bay</toponymName>
<name>Marina Bay</name>
<lat>1.28105</lat>
<lng>103.85972</lng>
<geonameId>8354422</geonameId>
<countryCode>SG</countryCode>
<countryName>Singapore</countryName>
<fcl>P</fcl>
<fcode>PPLX</fcode>
</geoname>
<geoname>
<toponymName>Singapore Rock</toponymName>
<name>Singapore Rock</name>
<lat>-20.91667</lat>
<lng>149.38333</lng>
<geonameId>2149478</geonameId>
<countryCode>AU</countryCode>
<countryName>Australia</countryName>
<fcl>T</fcl>
<fcode>RK</fcode>
</geoname>
<geoname>
<toponymName>Pulau Tembakul</toponymName>
<name>Pulau Tembakul</name>
<lat>1.22376</lat>
<lng>103.86048</lng>
<geonameId>1880197</geonameId>
<countryCode>SG</countryCode>
<countryName>Singapore</countryName>
<fcl>T</fcl>
<fcode>ISL</fcode>
</geoname>
<geoname>
<toponymName>Pulau Tekong Kechil</toponymName>
<name>Pulau Tekong Kechil</name>
<lat>1.41667</lat>
<lng>104.02306</lng>
<geonameId>1880203</geonameId>
<countryCode>SG</countryCode>
<countryName>Singapore</countryName>
<fcl>T</fcl>
<fcode>ISL</fcode>
</geoname>
<geoname>
<toponymName>Pulau Tekong</toponymName>
<name>Pulau Tekong</name>
<lat>1.41667</lat>
<lng>104.05583</lng>
<geonameId>1880204</geonameId>
<countryCode>SG</countryCode>
<countryName>Singapore</countryName>
<fcl>T</fcl>
<fcode>ISL</fcode>
</geoname>
<geoname>
<toponymName>Pulau Sudong</toponymName>
<name>Pulau Sudong</name>
<lat>1.2075</lat>
<lng>103.72056</lng>
<geonameId>1880231</geonameId>
<countryCode>SG</countryCode>
<countryName>Singapore</countryName>
<fcl>T</fcl>
<fcode>ISL</fcode>
</geoname>
<geoname>
<toponymName>Pulau Serangoon</toponymName>
<name>Pulau Serangoon</name>
<lat>1.40917</lat>
<lng>103.92389</lng>
<geonameId>1880270</geonameId>
<countryCode>SG</countryCode>
<countryName>Singapore</countryName>
<fcl>T</fcl>
<fcode>ISL</fcode>
</geoname>
<geoname>
<toponymName>Pulau Senang</toponymName>
<name>Pulau Senang</name>
<lat>1.17111</lat>
<lng>103.73528</lng>
<geonameId>1880276</geonameId>
<countryCode>SG</countryCode>
<countryName>Singapore</countryName>
<fcl>T</fcl>
<fcode>ISL</fcode>
</geoname>
<geoname>
<toponymName>Pulau Semakau</toponymName>
<name>Pulau Semakau</name>
<lat>1.20667</lat>
<lng>103.76028</lng>
<geonameId>1880284</geonameId>
<countryCode>SG</countryCode>
<countryName>Singapore</countryName>
<fcl>T</fcl>
<fcode>ISL</fcode>
</geoname>
<geoname>
<toponymName>Pulau Satumu</toponymName>
<name>Coney Island</name>
<lat>1.15989</lat>
<lng>103.74076</lng>
<geonameId>1880305</geonameId>
<countryCode>SG</countryCode>
<countryName>Singapore</countryName>
<fcl>T</fcl>
<fcode>ISL</fcode>
</geoname>
<geoname>
<toponymName>Pulau Samulun</toponymName>
<name>Pulau Samulun</name>
<lat>1.30333</lat>
<lng>103.69694</lng>
<geonameId>1880313</geonameId>
<countryCode>SG</countryCode>
<countryName>Singapore</countryName>
<fcl>T</fcl>
<fcode>ISLT</fcode>
</geoname>
<geoname>
<toponymName>Pulau Pawai</toponymName>
<name>Pulau Pawai</name>
<lat>1.18571</lat>
<lng>103.72417</lng>
<geonameId>1880400</geonameId>
<countryCode>SG</countryCode>
<countryName>Singapore</countryName>
<fcl>T</fcl>
<fcode>ISL</fcode>
</geoname>
<geoname>
<toponymName>Bukit Panjang</toponymName>
<name>Bukit Panjang</name>
<lat>1.37278</lat>
<lng>103.75444</lng>
<geonameId>1880412</geonameId>
<countryCode>SG</countryCode>
<countryName>Singapore</countryName>
<fcl>T</fcl>
<fcode>HLL</fcode>
</geoname>
<geoname>
<toponymName>Pulau Keppel</toponymName>
<name>Pulau Keppel</name>
<lat>1.26389</lat>
<lng>103.81194</lng>
<geonameId>1880659</geonameId>
<countryCode>SG</countryCode>
<countryName>Singapore</countryName>
<fcl>T</fcl>
<fcode>ISL</fcode>
</geoname>
<geoname>
<toponymName>Pulau Hantu</toponymName>
<name>Pulau Hantu</name>
<lat>1.22472</lat>
<lng>103.74861</lng>
<geonameId>1880660</geonameId>
<countryCode>SG</countryCode>
<countryName>Singapore</countryName>
<fcl>T</fcl>
<fcode>ISL</fcode>
</geoname>
<geoname>
<toponymName>Geylang</toponymName>
<name>Geylang</name>
<lat>1.3275</lat>
<lng>103.93194</lng>
<geonameId>1880670</geonameId>
<countryCode>SG</countryCode>
<countryName>Singapore</countryName>
<fcl>L</fcl>
<fcode>LCTY</fcode>
</geoname>
<geoname>
<toponymName>Mount Faber II</toponymName>
<name>Mount Faber II</name>
<lat>1.27889</lat>
<lng>103.81083</lng>
<geonameId>1880681</geonameId>
<countryCode>SG</countryCode>
<countryName>Singapore</countryName>
<fcl>T</fcl>
<fcode>HLL</fcode>
</geoname>
<geoname>
<toponymName>Clementi Park</toponymName>
<name>Clementi Park</name>
<lat>1.3275</lat>
<lng>103.76806</lng>
<geonameId>1880700</geonameId>
<countryCode>SG</countryCode>
<countryName>Singapore</countryName>
<fcl>L</fcl>
<fcode>PRK</fcode>
</geoname>
<geoname>
<toponymName>Tanjong Chek Jawa</toponymName>
<name>Tanjong Chek Jawa</name>
<lat>1.40806</lat>
<lng>103.99139</lng>
<geonameId>1880718</geonameId>
<countryCode>SG</countryCode>
<countryName>Singapore</countryName>
<fcl>T</fcl>
<fcode>PT</fcode>
</geoname>
<geoname>
<toponymName>Pulau Busing</toponymName>
<name>Boosina Island</name>
<lat>1.23444</lat>
<lng>103.74556</lng>
<geonameId>1880732</geonameId>
<countryCode>SG</countryCode>
<countryName>Singapore</countryName>
<fcl>T</fcl>
<fcode>ISL</fcode>
</geoname>
<geoname>
<toponymName>Pulau Brani</toponymName>
<name>Pulau Brani</name>
<lat>1.25944</lat>
<lng>103.8325</lng>
<geonameId>1880758</geonameId>
<countryCode>SG</countryCode>
<countryName>Singapore</countryName>
<fcl>T</fcl>
<fcode>ISLT</fcode>
</geoname>
<geoname>
<toponymName>Pulau Biola</toponymName>
<name>Pulau Biola</name>
<lat>1.16444</lat>
<lng>103.74222</lng>
<geonameId>1880767</geonameId>
<countryCode>SG</countryCode>
<countryName>Singapore</countryName>
<fcl>T</fcl>
<fcode>ISL</fcode>
</geoname>
<geoname>
<toponymName>Tanjong Berlayar</toponymName>
<name>Tanjong Berlayar</name>
<lat>1.26278</lat>
<lng>103.80528</lng>
<geonameId>1880773</geonameId>
<countryCode>SG</countryCode>
<countryName>Singapore</countryName>
<fcl>T</fcl>
<fcode>PT</fcode>
</geoname>
<geoname>
<toponymName>Pulau Bajau</toponymName>
<name>Pulau Bajau</name>
<lat>1.36472</lat>
<lng>103.64917</lng>
<geonameId>1880805</geonameId>
<countryCode>SG</countryCode>
<countryName>Singapore</countryName>
<fcl>T</fcl>
<fcode>ISL</fcode>
</geoname>
<geoname>
<toponymName>Farrer Park</toponymName>
<name>Farrer Park</name>
<lat>1.31222</lat>
<lng>103.84889</lng>
<geonameId>1881924</geonameId>
<countryCode>SG</countryCode>
<countryName>Singapore</countryName>
<fcl>L</fcl>
<fcode>PRK</fcode>
</geoname>
<geoname>
<toponymName>Kallang Park</toponymName>
<name>Kallang Park</name>
<lat>1.30333</lat>
<lng>103.87722</lng>
<geonameId>1881959</geonameId>
<countryCode>SG</countryCode>
<countryName>Singapore</countryName>
<fcl>L</fcl>
<fcode>RESN</fcode>
</geoname>
<geoname>
<toponymName>Katong Park</toponymName>
<name>Katong Park</name>
<lat>1.29722</lat>
<lng>103.90111</lng>
<geonameId>1881966</geonameId>
<countryCode>SG</countryCode>
<countryName>Singapore</countryName>
<fcl>L</fcl>
<fcode>RESN</fcode>
</geoname>
<geoname>
<toponymName>Kent Ridge</toponymName>
<name>Kent Ridge</name>
<lat>1.29333</lat>
<lng>103.78306</lng>
<geonameId>1881967</geonameId>
<countryCode>SG</countryCode>
<countryName>Singapore</countryName>
<fcl>T</fcl>
<fcode>RDGE</fcode>
</geoname>
<geoname>
<toponymName>Aljunied</toponymName>
<name>Aljunied</name>
<lat>1.33472</lat>
<lng>103.885</lng>
<geonameId>1881998</geonameId>
<countryCode>SG</countryCode>
<countryName>Singapore</countryName>
<fcl>L</fcl>
<fcode>LCTY</fcode>
</geoname>
<geoname>
<toponymName>Anson</toponymName>
<name>Anson</name>
<lat>1.27056</lat>
<lng>103.84944</lng>
<geonameId>1881999</geonameId>
<countryCode>SG</countryCode>
<countryName>Singapore</countryName>
<fcl>L</fcl>
<fcode>LCTY</fcode>
</geoname>
<geoname>
<toponymName>Bukit Batok</toponymName>
<name>Bukit Batok</name>
<lat>1.36111</lat>
<lng>103.75639</lng>
<geonameId>1882001</geonameId>
<countryCode>SG</countryCode>
<countryName>Singapore</countryName>
<fcl>L</fcl>
<fcode>LCTY</fcode>
</geoname>
<geoname>
<toponymName>Bukit Merah</toponymName>
<name>Bukit Merah</name>
<lat>1.28583</lat>
<lng>103.81944</lng>
<geonameId>1882003</geonameId>
<countryCode>SG</countryCode>
<countryName>Singapore</countryName>
<fcl>L</fcl>
<fcode>LCTY</fcode>
</geoname>
<geoname>
<toponymName>Bukit Panjang</toponymName>
<name>Bukit Panjang</name>
<lat>1.39278</lat>
<lng>103.7925</lng>
<geonameId>1882004</geonameId>
<countryCode>SG</countryCode>
<countryName>Singapore</countryName>
<fcl>L</fcl>
<fcode>LCTY</fcode>
</geoname>
<geoname>
<toponymName>Bukit Timah</toponymName>
<name>Bukit Timah</name>
<lat>1.32028</lat>
<lng>103.75639</lng>
<geonameId>1882005</geonameId>
<countryCode>SG</countryCode>
<countryName>Singapore</countryName>
<fcl>L</fcl>
<fcode>LCTY</fcode>
</geoname>
<geoname>
<toponymName>Cairnhill</toponymName>
<name>Cairnhill</name>
<lat>1.31</lat>
<lng>103.84194</lng>
<geonameId>1882006</geonameId>
<countryCode>SG</countryCode>
<countryName>Singapore</countryName>
<fcl>L</fcl>
<fcode>LCTY</fcode>
</geoname>
<geoname>
<toponymName>Crawford</toponymName>
<name>Crawford</name>
<lat>1.30222</lat>
<lng>103.86806</lng>
<geonameId>1882008</geonameId>
<countryCode>SG</countryCode>
<countryName>Singapore</countryName>
<fcl>L</fcl>
<fcode>LCTY</fcode>
</geoname>
<geoname>
<toponymName>Farrer Park</toponymName>
<name>Farrer Park</name>
<lat>1.31139</lat>
<lng>103.85278</lng>
<geonameId>1882009</geonameId>
<countryCode>SG</countryCode>
<countryName>Singapore</countryName>
<fcl>L</fcl>
<fcode>LCTY</fcode>
</geoname>
<geoname>
<toponymName>Geylang Serai</toponymName>
<name>Geylang Serai</name>
<lat>1.325</lat>
<lng>103.895</lng>
<geonameId>1882011</geonameId>
<countryCode>SG</countryCode>
<countryName>Singapore</countryName>
<fcl>L</fcl>
<fcode>LCTY</fcode>
</geoname>
<geoname>
<toponymName>Geylang West</toponymName>
<name>Geylang West</name>
<lat>1.315</lat>
<lng>103.87778</lng>
<geonameId>1882012</geonameId>
<countryCode>SG</countryCode>
<countryName>Singapore</countryName>
<fcl>L</fcl>
<fcode>LCTY</fcode>
</geoname>
<geoname>
<toponymName>Henderson</toponymName>
<name>Henderson</name>
<lat>1.28222</lat>
<lng>103.82556</lng>
<geonameId>1882013</geonameId>
<countryCode>SG</countryCode>
<countryName>Singapore</countryName>
<fcl>L</fcl>
<fcode>LCTY</fcode>
</geoname>
<geoname>
<toponymName>Jalan Besar</toponymName>
<name>Jalan Besar</name>
<lat>1.30944</lat>
<lng>103.86444</lng>
<geonameId>1882014</geonameId>
<countryCode>SG</countryCode>
<countryName>Singapore</countryName>
<fcl>L</fcl>
<fcode>LCTY</fcode>
</geoname>
<geoname>
<toponymName>Jalan Kayu</toponymName>
<name>Jalan Kayu</name>
<lat>1.40167</lat>
<lng>103.89</lng>
<geonameId>1882015</geonameId>
<countryCode>SG</countryCode>
<countryName>Singapore</countryName>
<fcl>L</fcl>
<fcode>LCTY</fcode>
</geoname>
<geoname>
<toponymName>Joo Chiat</toponymName>
<name>Joo Chiat</name>
<lat>1.30667</lat>
<lng>103.91111</lng>
<geonameId>1882016</geonameId>
<countryCode>SG</countryCode>
<countryName>Singapore</countryName>
<fcl>L</fcl>
<fcode>LCTY</fcode>
</geoname>
<geoname>
<toponymName>Jurong</toponymName>
<name>Jurong</name>
<lat>1.32028</lat>
<lng>103.69361</lng>
<geonameId>1882017</geonameId>
<countryCode>SG</countryCode>
<countryName>Singapore</countryName>
<fcl>L</fcl>
<fcode>LCTY</fcode>
</geoname>
<geoname>
<toponymName>Kallang</toponymName>
<name>Kallang</name>
<lat>1.32028</lat>
<lng>103.86444</lng>
<geonameId>1882018</geonameId>
<countryCode>SG</countryCode>
<countryName>Singapore</countryName>
<fcl>L</fcl>
<fcode>LCTY</fcode>
</geoname>
<geoname>
<toponymName>Kampong Kapor</toponymName>
<name>Kampong Kapor</name>
<lat>1.30583</lat>
<lng>103.85667</lng>
<geonameId>1882021</geonameId>
<countryCode>SG</countryCode>
<countryName>Singapore</countryName>
<fcl>L</fcl>
<fcode>LCTY</fcode>
</geoname>
<geoname>
<toponymName>Kampong Kembangan</toponymName>
<name>Kampong Kembangan</name>
<lat>1.32583</lat>
<lng>103.9075</lng>
<geonameId>1882022</geonameId>
<countryCode>SG</countryCode>
<countryName>Singapore</countryName>
<fcl>L</fcl>
<fcode>LCTY</fcode>
</geoname>
<geoname>
<toponymName>Kampong Ubi</toponymName>
<name>Kampong Ubi</name>
<lat>1.32583</lat>
<lng>103.89861</lng>
<geonameId>1882023</geonameId>
<countryCode>SG</countryCode>
<countryName>Singapore</countryName>
<fcl>L</fcl>
<fcode>LCTY</fcode>
</geoname>
<geoname>
<toponymName>Katong</toponymName>
<name>Katong</name>
<lat>1.29778</lat>
<lng>103.88694</lng>
<geonameId>1882024</geonameId>
<countryCode>SG</countryCode>
<countryName>Singapore</countryName>
<fcl>L</fcl>
<fcode>LCTY</fcode>
</geoname>
<geoname>
<toponymName>Kim Keat</toponymName>
<name>Kim Keat</name>
<lat>1.33472</lat>
<lng>103.86194</lng>
<geonameId>1882025</geonameId>
<countryCode>SG</countryCode>
<countryName>Singapore</countryName>
<fcl>L</fcl>
<fcode>LCTY</fcode>
</geoname>
<geoname>
<toponymName>Kim Seng</toponymName>
<name>Kim Seng</name>
<lat>1.28972</lat>
<lng>103.83389</lng>
<geonameId>1882026</geonameId>
<countryCode>SG</countryCode>
<countryName>Singapore</countryName>
<fcl>L</fcl>
<fcode>LCTY</fcode>
</geoname>
<geoname>
<toponymName>Kreta Ayer</toponymName>
<name>Kreta Ayer</name>
<lat>1.28194</lat>
<lng>103.84556</lng>
<geonameId>1882027</geonameId>
<countryCode>SG</countryCode>
<countryName>Singapore</countryName>
<fcl>L</fcl>
<fcode>LCTY</fcode>
</geoname>
<geoname>
<toponymName>Kuo Chuan</toponymName>
<name>Kuo Chuan</name>
<lat>1.33611</lat>
<lng>103.84444</lng>
<geonameId>1882028</geonameId>
<countryCode>SG</countryCode>
<countryName>Singapore</countryName>
<fcl>L</fcl>
<fcode>LCTY</fcode>
</geoname>
<geoname>
<toponymName>Leng Kee</toponymName>
<name>Leng Kee</name>
<lat>1.28833</lat>
<lng>103.81278</lng>
<geonameId>1882029</geonameId>
<countryCode>SG</countryCode>
<countryName>Singapore</countryName>
<fcl>L</fcl>
<fcode>LCTY</fcode>
</geoname>
<geoname>
<toponymName>Marina Centre</toponymName>
<name>Marina Centre</name>
<lat>1.29056</lat>
<lng>103.85917</lng>
<geonameId>1882035</geonameId>
<countryCode>SG</countryCode>
<countryName>Singapore</countryName>
<fcl>L</fcl>
<fcode>CTRB</fcode>
</geoname>
<geoname>
<toponymName>Marina East</toponymName>
<name>Marina East</name>
<lat>1.27194</lat>
<lng>103.85917</lng>
<geonameId>1882036</geonameId>
<countryCode>SG</countryCode>
<countryName>Singapore</countryName>
<fcl>L</fcl>
<fcode>CTRB</fcode>
</geoname>
<geoname>
<toponymName>Marina South</toponymName>
<name>Marina South</name>
<lat>1.275</lat>
<lng>103.85972</lng>
<geonameId>1882038</geonameId>
<countryCode>SG</countryCode>
<countryName>Singapore</countryName>
<fcl>L</fcl>
<fcode>CTRB</fcode>
</geoname>
<geoname>
<toponymName>Moulmein</toponymName>
<name>Moulmein</name>
<lat>1.32028</lat>
<lng>103.85167</lng>
<geonameId>1882040</geonameId>
<countryCode>SG</countryCode>
<countryName>Singapore</countryName>
<fcl>L</fcl>
<fcode>LCTY</fcode>
</geoname>
<geoname>
<toponymName>Nee Soon</toponymName>
<name>Nee Soon</name>
<lat>1.41972</lat>
<lng>103.83722</lng>
<geonameId>1882043</geonameId>
<countryCode>SG</countryCode>
<countryName>Singapore</countryName>
<fcl>L</fcl>
<fcode>LCTY</fcode>
</geoname>
<geoname>
<toponymName>Potong Pasir</toponymName>
<name>Potong Pasir</name>
<lat>1.33639</lat>
<lng>103.86639</lng>
<geonameId>1882073</geonameId>
<countryCode>SG</countryCode>
<countryName>Singapore</countryName>
<fcl>L</fcl>
<fcode>LCTY</fcode>
</geoname>
<geoname>
<toponymName>Queenstown</toponymName>
<name>Queenstown</name>
<lat>1.29944</lat>
<lng>103.80583</lng>
<geonameId>1882077</geonameId>
<countryCode>SG</countryCode>
<countryName>Singapore</countryName>
<fcl>L</fcl>
<fcode>LCTY</fcode>
</geoname>
<geoname>
<toponymName>Redhill Industrial Estate</toponymName>
<name>Redhill Industrial Estate</name>
<lat>1.285</lat>
<lng>103.81194</lng>
<geonameId>1882079</geonameId>
<countryCode>SG</countryCode>
<countryName>Singapore</countryName>
<fcl>L</fcl>
<fcode>INDS</fcode>
</geoname>
<geoname>
<toponymName>River Valley</toponymName>
<name>River Valley</name>
<lat>1.29778</lat>
<lng>103.83278</lng>
<geonameId>1882080</geonameId>
<countryCode>SG</countryCode>
<countryName>Singapore</countryName>
<fcl>L</fcl>
<fcode>LCTY</fcode>
</geoname>
<geoname>
<toponymName>Rochor</toponymName>
<name>Rochor</name>
<lat>1.30139</lat>
<lng>103.85528</lng>
<geonameId>1882081</geonameId>
<countryCode>SG</countryCode>
<countryName>Singapore</countryName>
<fcl>L</fcl>
<fcode>LCTY</fcode>
</geoname>
<geoname>
<toponymName>Science Park</toponymName>
<name>Science Park</name>
<lat>1.29139</lat>
<lng>103.78806</lng>
<geonameId>1882089</geonameId>
<countryCode>SG</countryCode>
<countryName>Singapore</countryName>
<fcl>L</fcl>
<fcode>INDS</fcode>
</geoname>
<geoname>
<toponymName>Sembawang</toponymName>
<name>Sembawang</name>
<lat>1.465</lat>
<lng>103.81944</lng>
<geonameId>1882097</geonameId>
<countryCode>SG</countryCode>
<countryName>Singapore</countryName>
<fcl>L</fcl>
<fcode>LCTY</fcode>
</geoname>
<geoname>
<toponymName>Sepoy Lines</toponymName>
<name>Sepoy Lines</name>
<lat>1.27861</lat>
<lng>103.83917</lng>
<geonameId>1882099</geonameId>
<countryCode>SG</countryCode>
<countryName>Singapore</countryName>
<fcl>L</fcl>
<fcode>LCTY</fcode>
</geoname>
<geoname>
<toponymName>Serangoon Garden</toponymName>
<name>Serangoon Garden</name>
<lat>1.36111</lat>
<lng>103.85972</lng>
<geonameId>1882100</geonameId>
<countryCode>SG</countryCode>
<countryName>Singapore</countryName>
<fcl>L</fcl>
<fcode>LCTY</fcode>
</geoname>
<geoname>
<toponymName>Siglap Park</toponymName>
<name>Siglap Park</name>
<lat>1.31667</lat>
<lng>103.92806</lng>
<geonameId>1882102</geonameId>
<countryCode>SG</countryCode>
<countryName>Singapore</countryName>
<fcl>L</fcl>
<fcode>RESN</fcode>
</geoname>
<geoname>
<toponymName>Stamford</toponymName>
<name>Stamford</name>
<lat>1.29333</lat>
<lng>103.85083</lng>
<geonameId>1882109</geonameId>
<countryCode>SG</countryCode>
<countryName>Singapore</countryName>
<fcl>L</fcl>
<fcode>LCTY</fcode>
</geoname>
<geoname>
<toponymName>Tanglin</toponymName>
<name>Tanglin</name>
<lat>1.32944</lat>
<lng>103.82833</lng>
<geonameId>1882117</geonameId>
<countryCode>SG</countryCode>
<countryName>Singapore</countryName>
<fcl>L</fcl>
<fcode>LCTY</fcode>
</geoname>
<geoname>
<toponymName>Tanjong Pagar</toponymName>
<name>Tanjong Pagar</name>
<lat>1.27694</lat>
<lng>103.84389</lng>
<geonameId>1882119</geonameId>
<countryCode>SG</countryCode>
<countryName>Singapore</countryName>
<fcl>L</fcl>
<fcode>LCTY</fcode>
</geoname>
<geoname>
<toponymName>Telok Ayer</toponymName>
<name>Telok Ayer</name>
<lat>1.27944</lat>
<lng>103.85528</lng>
<geonameId>1882120</geonameId>
<countryCode>SG</countryCode>
<countryName>Singapore</countryName>
<fcl>L</fcl>
<fcode>LCTY</fcode>
</geoname>
<geoname>
<toponymName>Thomson</toponymName>
<name>Thomson</name>
<lat>1.35667</lat>
<lng>103.8375</lng>
<geonameId>1882145</geonameId>
<countryCode>SG</countryCode>
<countryName>Singapore</countryName>
<fcl>L</fcl>
<fcode>LCTY</fcode>
</geoname>
<geoname>
<toponymName>Tiong Bahru</toponymName>
<name>Tiong Bahru</name>
<lat>1.28139</lat>
<lng>103.83278</lng>
<geonameId>1882146</geonameId>
<countryCode>SG</countryCode>
<countryName>Singapore</countryName>
<fcl>L</fcl>
<fcode>LCTY</fcode>
</geoname>
<geoname>
<toponymName>Toa Payoh</toponymName>
<name>Toa Payoh</name>
<lat>1.33611</lat>
<lng>103.85028</lng>
<geonameId>1882147</geonameId>
<countryCode>SG</countryCode>
<countryName>Singapore</countryName>
<fcl>L</fcl>
<fcode>LCTY</fcode>
</geoname>
<geoname>
<toponymName>Ulu Pandan</toponymName>
<name>Ulu Pandan</name>
<lat>1.32944</lat>
<lng>103.80139</lng>
<geonameId>1882150</geonameId>
<countryCode>SG</countryCode>
<countryName>Singapore</countryName>
<fcl>L</fcl>
<fcode>LCTY</fcode>
</geoname>
<geoname>
<toponymName>Upper Serangoon</toponymName>
<name>Upper Serangoon</name>
<lat>1.35778</lat>
<lng>103.88333</lng>
<geonameId>1882151</geonameId>
<countryCode>SG</countryCode>
<countryName>Singapore</countryName>
<fcl>L</fcl>
<fcode>LCTY</fcode>
</geoname>
<geoname>
<toponymName>West Point Garden</toponymName>
<name>West Point Garden</name>
<lat>1.29</lat>
<lng>103.76917</lng>
<geonameId>1882152</geonameId>
<countryCode>SG</countryCode>
<countryName>Singapore</countryName>
<fcl>L</fcl>
<fcode>RESN</fcode>
</geoname>
<geoname>
<toponymName>Whampoa</toponymName>
<name>Whampoa</name>
<lat>1.32389</lat>
<lng>103.85861</lng>
<geonameId>1882153</geonameId>
<countryCode>SG</countryCode>
<countryName>Singapore</countryName>
<fcl>L</fcl>
<fcode>LCTY</fcode>
</geoname>
<geoname>
<toponymName>Kranji Reservoir Park</toponymName>
<name>Kranji Reservoir Park</name>
<lat>1.43972</lat>
<lng>103.73778</lng>
<geonameId>1882255</geonameId>
<countryCode>SG</countryCode>
<countryName>Singapore</countryName>
<fcl>L</fcl>
<fcode>PRK</fcode>
</geoname>
<geoname>
<toponymName>Phoenix Park</toponymName>
<name>Phoenix Park</name>
<lat>1.37639</lat>
<lng>103.75639</lng>
<geonameId>1882323</geonameId>
<countryCode>SG</countryCode>
<countryName>Singapore</countryName>
<fcl>L</fcl>
<fcode>PRK</fcode>
</geoname>
<geoname>
<toponymName>Pasir Ris Beach Park</toponymName>
<name>Pasir Ris Beach Park</name>
<lat>1.38361</lat>
<lng>103.94528</lng>
<geonameId>1882429</geonameId>
<countryCode>SG</countryCode>
<countryName>Singapore</countryName>
<fcl>L</fcl>
<fcode>PRK</fcode>
</geoname>
<geoname>
<toponymName>Tropical Garden</toponymName>
<name>Tropical Garden</name>
<lat>1.33056</lat>
<lng>103.73083</lng>
<geonameId>1882509</geonameId>
<countryCode>SG</countryCode>
<countryName>Singapore</countryName>
<fcl>L</fcl>
<fcode>RESN</fcode>
</geoname>
<geoname>
<toponymName>Jurong Hill</toponymName>
<name>Jurong Hill</name>
<lat>1.3175</lat>
<lng>103.7075</lng>
<geonameId>1882512</geonameId>
<countryCode>SG</countryCode>
<countryName>Singapore</countryName>
<fcl>T</fcl>
<fcode>HLL</fcode>
</geoname>
<geoname>
<toponymName>Serangoon Park</toponymName>
<name>Serangoon Park</name>
<lat>1.35056</lat>
<lng>103.86694</lng>
<geonameId>1882686</geonameId>
<countryCode>SG</countryCode>
<countryName>Singapore</countryName>
<fcl>L</fcl>
<fcode>PRK</fcode>
</geoname>
<geoname>
<toponymName>Marina South City Park</toponymName>
<name>Marina South City Park</name>
<lat>1.28</lat>
<lng>103.86111</lng>
<geonameId>1882727</geonameId>
<countryCode>SG</countryCode>
<countryName>Singapore</countryName>
<fcl>L</fcl>
<fcode>PRK</fcode>
</geoname>
<geoname>
<toponymName>Kallang Basin</toponymName>
<name>Kallang Basin</name>
<lat>1.30139</lat>
<lng>103.86917</lng>
<geonameId>1882873</geonameId>
<countryCode>SG</countryCode>
<countryName>Singapore</countryName>
<fcl>L</fcl>
<fcode>BSND</fcode>
</geoname>
<geoname>
<toponymName>Woodlands Garden</toponymName>
<name>Woodlands Garden</name>
<lat>1.43861</lat>
<lng>103.77</lng>
<geonameId>1884203</geonameId>
<countryCode>SG</countryCode>
<countryName>Singapore</countryName>
<fcl>L</fcl>
<fcode>PRK</fcode>
</geoname>
<geoname>
<toponymName>Bukit Batok Town Park</toponymName>
<name>Bukit Batok Town Park</name>
<lat>1.35556</lat>
<lng>103.76361</lng>
<geonameId>1884297</geonameId>
<countryCode>SG</countryCode>
<countryName>Singapore</countryName>
<fcl>L</fcl>
<fcode>PRK</fcode>
</geoname>
<geoname>
<toponymName>Marina Park</toponymName>
<name>Marina Park</name>
<lat>1.29972</lat>
<lng>103.86472</lng>
<geonameId>1884302</geonameId>
<countryCode>SG</countryCode>
<countryName>Singapore</countryName>
<fcl>L</fcl>
<fcode>PRK</fcode>
</geoname>
<geoname>
<toponymName>Telok Blangah Hill Park</toponymName>
<name>Telok Blangah Hill Park</name>
<lat>1.28222</lat>
<lng>103.81222</lng>
<geonameId>1884310</geonameId>
<countryCode>SG</countryCode>
<countryName>Singapore</countryName>
<fcl>L</fcl>
<fcode>PRK</fcode>
</geoname>
<geoname>
<toponymName>Aljunied Park</toponymName>
<name>Aljunied Park</name>
<lat>1.33028</lat>
<lng>103.88778</lng>
<geonameId>1884338</geonameId>
<countryCode>SG</countryCode>
<countryName>Singapore</countryName>
<fcl>L</fcl>
<fcode>PRK</fcode>
</geoname>
<geoname>
<toponymName>Bedok</toponymName>
<name>Bedok</name>
<lat>1.34167</lat>
<lng>103.95083</lng>
<geonameId>1884383</geonameId>
<countryCode>SG</countryCode>
<countryName>Singapore</countryName>
<fcl>L</fcl>
<fcode>INDS</fcode>
</geoname>
<geoname>
<toponymName>Alexandra Village</toponymName>
<name>Alexandra Village</name>
<lat>1.28528</lat>
<lng>103.80444</lng>
<geonameId>1884392</geonameId>
<countryCode>SG</countryCode>
<countryName>Singapore</countryName>
<fcl>L</fcl>
<fcode>INDS</fcode>
</geoname>
<geoname>
<toponymName>Changi</toponymName>
<name>Changi</name>
<lat>1.39148</lat>
<lng>103.9906</lng>
<geonameId>1885152</geonameId>
<countryCode>SG</countryCode>
<countryName>Singapore</countryName>
<fcl>L</fcl>
<fcode>LCTY</fcode>
</geoname>
<geoname>
<toponymName>Marina Terminal</toponymName>
<name>Marina Terminal</name>
<lat>1.26833</lat>
<lng>103.83611</lng>
<geonameId>1885155</geonameId>
<countryCode>SG</countryCode>
<countryName>Singapore</countryName>
<fcl>L</fcl>
<fcode>PRT</fcode>
</geoname>
<geoname>
<toponymName>Jurong Park</toponymName>
<name>Jurong Park</name>
<lat>1.32694</lat>
<lng>103.72833</lng>
<geonameId>1885169</geonameId>
<countryCode>SG</countryCode>
<countryName>Singapore</countryName>
<fcl>L</fcl>
<fcode>PRK</fcode>
</geoname>
<geoname>
<toponymName>City</toponymName>
<name>City</name>
<lat>1.28583</lat>
<lng>103.83222</lng>
<geonameId>1885251</geonameId>
<countryCode>SG</countryCode>
<countryName>Singapore</countryName>
<fcl>L</fcl>
<fcode>LCTY</fcode>
</geoname>
<geoname>
<toponymName>Pearl’s Hill City Park</toponymName>
<name>Pearl’s Hill City Park</name>
<lat>1.28444</lat>
<lng>103.83917</lng>
<geonameId>1885259</geonameId>
<countryCode>SG</countryCode>
<countryName>Singapore</countryName>
<fcl>L</fcl>
<fcode>PRK</fcode>
</geoname>
<geoname>
<toponymName>Serangoon</toponymName>
<name>Serangoon</name>
<lat>1.39583</lat>
<lng>103.84389</lng>
<geonameId>1885278</geonameId>
<countryCode>SG</countryCode>
<countryName>Singapore</countryName>
<fcl>L</fcl>
<fcode>LCTY</fcode>
</geoname>
<geoname>
<toponymName>Serangoon Garden</toponymName>
<name>Serangoon Garden</name>
<lat>1.37778</lat>
<lng>103.86528</lng>
<geonameId>1885280</geonameId>
<countryCode>SG</countryCode>
<countryName>Singapore</countryName>
<fcl>L</fcl>
<fcode>LCTY</fcode>
</geoname>
<geoname>
<toponymName>Singapur</toponymName>
<name>Singapur</name>
<lat>10.18313</lat>
<lng>-71.04441</lng>
<geonameId>3626802</geonameId>
<countryCode>VE</countryCode>
<countryName>Venezuela</countryName>
<fcl>P</fcl>
<fcode>PPL</fcode>
</geoname>
<geoname>
<toponymName>Singapur</toponymName>
<name>Singapur</name>
<lat>17.97913</lat>
<lng>-66.05933</lng>
<geonameId>4568334</geonameId>
<countryCode>PR</countryCode>
<countryName>Puerto Rico</countryName>
<fcl>P</fcl>
<fcode>PPL</fcode>
</geoname>
<geoname>
<toponymName>Singapore</toponymName>
<name>Singapore</name>
<lat>47.4501</lat>
<lng>-82.64978</lng>
<geonameId>6148275</geonameId>
<countryCode>CA</countryCode>
<countryName>Canada</countryName>
<fcl>L</fcl>
<fcode>AREA</fcode>
</geoname>
<geoname>
<toponymName>Singapore Lake</toponymName>
<name>Singapore Lake</name>
<lat>50.16413</lat>
<lng>-91.26503</lng>
<geonameId>6148276</geonameId>
<countryCode>CA</countryCode>
<countryName>Canada</countryName>
<fcl>H</fcl>
<fcode>LK</fcode>
</geoname>
<geoname>
<toponymName>Bugis</toponymName>
<name>Bugis</name>
<lat>1.30056</lat>
<lng>103.85493</lng>
<geonameId>7289737</geonameId>
<countryCode>SG</countryCode>
<countryName>Singapore</countryName>
<fcl>P</fcl>
<fcode>PPL</fcode>
</geoname>
<geoname>
<toponymName>International Business Park</toponymName>
<name>International Business Park</name>
<lat>1.32958</lat>
<lng>103.7475</lng>
<geonameId>7289742</geonameId>
<countryCode>SG</countryCode>
<countryName>Singapore</countryName>
<fcl>L</fcl>
<fcode>PRK</fcode>
</geoname>
<geoname>
<toponymName>Fort Canning Park</toponymName>
<name>Fort Canning Park</name>
<lat>1.29369</lat>
<lng>103.84665</lng>
<geonameId>6951477</geonameId>
<countryCode>SG</countryCode>
<countryName>Singapore</countryName>
<fcl>L</fcl>
<fcode>PRK</fcode>
</geoname>
<geoname>
<toponymName>North East Community Development Region</toponymName>
<name>North East Community Development Region</name>
<lat>1.31421</lat>
<lng>103.85822</lng>
<geonameId>7535955</geonameId>
<countryCode>SG</countryCode>
<countryName>Singapore</countryName>
<fcl>A</fcl>
<fcode>ADM1</fcode>
</geoname>
<geoname>
<toponymName>South East Community Development Council</toponymName>
<name>South East Community Development Council</name>
<lat>1.30683</lat>
<lng>103.88698</lng>
<geonameId>7535956</geonameId>
<countryCode>SG</countryCode>
<countryName>Singapore</countryName>
<fcl>A</fcl>
<fcode>ADM1</fcode>
</geoname>
<geoname>
<toponymName>North West Community Development Council</toponymName>
<name>North West Community Development Council</name>
<lat>1.29868</lat>
<lng>103.81986</lng>
<geonameId>7535958</geonameId>
<countryCode>SG</countryCode>
<countryName>Singapore</countryName>
<fcl>A</fcl>
<fcode>ADM1</fcode>
</geoname>
<geoname>
<toponymName>Tanah Merah Port</toponymName>
<name>Tanah Merah Harbour</name>
<lat>1.2632</lat>
<lng>103.69321</lng>
<geonameId>9853641</geonameId>
<countryCode>SG</countryCode>
<countryName>Singapore</countryName>
<fcl>L</fcl>
<fcode>PRT</fcode>
</geoname>
<geoname>
<toponymName>Sino-Singapore Tianjin Eco-city</toponymName>
<name>Sino-Singapore Tianjin Eco-city</name>
<lat>39.15314</lat>
<lng>117.78352</lng>
<geonameId>11185299</geonameId>
<countryCode>CN</countryCode>
<countryName>China</countryName>
<fcl>P</fcl>
<fcode>PPLX</fcode>
</geoname>
<geoname>
<toponymName>Chestnut Nature Park</toponymName>
<name>Chestnut Nature Park</name>
<lat>1.37174</lat>
<lng>103.77964</lng>
<geonameId>11694444</geonameId>
<countryCode>SG</countryCode>
<countryName>Singapore</countryName>
<fcl>L</fcl>
<fcode>PRK</fcode>
</geoname>
<geoname>
<toponymName>The Green Oval</toponymName>
<name>The Green Oval</name>
<lat>1.38187</lat>
<lng>103.93744</lng>
<geonameId>11776694</geonameId>
<countryCode>SG</countryCode>
<countryName>Singapore</countryName>
<fcl>L</fcl>
<fcode>PRK</fcode>
</geoname>
<geoname>
<toponymName>Tembaga Reef</toponymName>
<name>Tembaga Reef</name>
<lat>1.26585</lat>
<lng>103.83922</lng>
<geonameId>1880198</geonameId>
<countryCode>SG</countryCode>
<countryName>Singapore</countryName>
<fcl>H</fcl>
<fcode>RF</fcode>
</geoname>
<geoname>
<toponymName>Tanjong Pagar</toponymName>
<name>Tanjong Pagar</name>
<lat>1.26199</lat>
<lng>103.84636</lng>
<geonameId>1880421</geonameId>
<countryCode>SG</countryCode>
<countryName>Singapore</countryName>
<fcl>T</fcl>
<fcode>PT</fcode>
</geoname>
<geoname>
<toponymName>Gamat-eMas Network (Singapore) Blk 34, Whampoa West</toponymName>
<name>Gamat-eMas Network (Singapore) Blk 34, Whampoa West</name>
<lat>1.31989</lat>
<lng>103.86245</lng>
<geonameId>6355174</geonameId>
<countryCode>SG</countryCode>
<countryName>Singapore</countryName>
<fcl>P</fcl>
<fcode>PPL</fcode>
</geoname>
<geoname>
<toponymName>Mount Singapore</toponymName>
<name>Mount Singapore</name>
<lat>-38.78181</lat>
<lng>146.44624</lng>
<geonameId>2149479</geonameId>
<countryCode>AU</countryCode>
<countryName>Australia</countryName>
<fcl>T</fcl>
<fcode>MT</fcode>
</geoname>
<geoname>
<toponymName>Singapur</toponymName>
<name>Singapur</name>
<lat>26.91472</lat>
<lng>-109.22917</lng>
<geonameId>8770440</geonameId>
<countryCode>MX</countryCode>
<countryName>Mexico</countryName>
<fcl>P</fcl>
<fcode>PPL</fcode>
</geoname>
<geoname>
<toponymName>Singāpur</toponymName>
<name>Singāpur</name>
<lat>34.36617</lat>
<lng>71.73053</lng>
<geonameId>1447202</geonameId>
<countryCode>PK</countryCode>
<countryName>Pakistan</countryName>
<fcl>P</fcl>
<fcode>PPL</fcode>
</geoname>
<geoname>
<toponymName>Toa Payoh New Town</toponymName>
<name>Toa Payoh New Town</name>
<lat>1.33611</lat>
<lng>103.85</lng>
<geonameId>1880176</geonameId>
<countryCode>SG</countryCode>
<countryName>Singapore</countryName>
<fcl>P</fcl>
<fcode>PPLX</fcode>
</geoname>
<geoname>
<toponymName>Tiong Bahru Estate</toponymName>
<name>Tiong Bahru Estate</name>
<lat>1.28333</lat>
<lng>103.83278</lng>
<geonameId>1880177</geonameId>
<countryCode>SG</countryCode>
<countryName>Singapore</countryName>
<fcl>P</fcl>
<fcode>PPLX</fcode>
</geoname>
<geoname>
<toponymName>Thomson</toponymName>
<name>Thomson</name>
<lat>1.34917</lat>
<lng>103.84361</lng>
<geonameId>1880184</geonameId>
<countryCode>SG</countryCode>
<countryName>Singapore</countryName>
<fcl>P</fcl>
<fcode>PPLX</fcode>
</geoname>
<geoname>
<toponymName>Pulau Tekukor</toponymName>
<name>Pulau Tekukor</name>
<lat>1.23047</lat>
<lng>103.83806</lng>
<geonameId>1880202</geonameId>
<countryCode>SG</countryCode>
<countryName>Singapore</countryName>
<fcl>T</fcl>
<fcode>ISL</fcode>
</geoname>
<geoname>
<toponymName>Somapah Changi</toponymName>
<name>Somapah Changi</name>
<lat>1.34167</lat>
<lng>103.96361</lng>
<geonameId>1880243</geonameId>
<countryCode>SG</countryCode>
<countryName>Singapore</countryName>
<fcl>P</fcl>
<fcode>PPLX</fcode>
</geoname>
<geoname>
<toponymName>Sentosa Island</toponymName>
<name>Sentosa Island</name>
<lat>1.24972</lat>
<lng>103.8296</lng>
<geonameId>1880272</geonameId>
<countryCode>SG</countryCode>
<countryName>Singapore</countryName>
<fcl>T</fcl>
<fcode>ISLT</fcode>
</geoname>
<geoname>
<toponymName>Pulau Sakijang Bendera</toponymName>
<name>Saint John’s Island</name>
<lat>1.21889</lat>
<lng>103.84806</lng>
<geonameId>1880323</geonameId>
<countryCode>SG</countryCode>
<countryName>Singapore</countryName>
<fcl>T</fcl>
<fcode>ISL</fcode>
</geoname>
<geoname>
<toponymName>Tengah</toponymName>
<name>Tengah</name>
<lat>1.37194</lat>
<lng>103.70389</lng>
<geonameId>1880536</geonameId>
<countryCode>SG</countryCode>
<countryName>Singapore</countryName>
<fcl>P</fcl>
<fcode>PPL</fcode>
</geoname>
<geoname>
<toponymName>Pulau Jong</toponymName>
<name>Pulau Jong</name>
<lat>1.21528</lat>
<lng>103.78667</lng>
<geonameId>1880633</geonameId>
<countryCode>SG</countryCode>
<countryName>Singapore</countryName>
<fcl>T</fcl>
<fcode>ISL</fcode>
</geoname>
<geoname>
<toponymName>Pulau Bukum</toponymName>
<name>Bukom Island</name>
<lat>1.23256</lat>
<lng>103.76913</lng>
<geonameId>1880743</geonameId>
<countryCode>SG</countryCode>
<countryName>Singapore</countryName>
<fcl>T</fcl>
<fcode>ISL</fcode>
</geoname>
<geoname>
<toponymName>Bukit Batok New Town</toponymName>
<name>Bukit Batok New Town</name>
<lat>1.35167</lat>
<lng>103.76278</lng>
<geonameId>1881921</geonameId>
<countryCode>SG</countryCode>
<countryName>Singapore</countryName>
<fcl>P</fcl>
<fcode>PPLX</fcode>
</geoname>
<geoname>
<toponymName>Jurong Town</toponymName>
<name>Jurong Town</name>
<lat>1.33417</lat>
<lng>103.72278</lng>
<geonameId>1881953</geonameId>
<countryCode>SG</countryCode>
<countryName>Singapore</countryName>
<fcl>P</fcl>
<fcode>PPL</fcode>
</geoname>
<geoname>
<toponymName>Delta Estate</toponymName>
<name>Delta Estate</name>
<lat>1.29111</lat>
<lng>103.82944</lng>
<geonameId>1882715</geonameId>
<countryCode>SG</countryCode>
<countryName>Singapore</countryName>
<fcl>P</fcl>
<fcode>PPLX</fcode>
</geoname>
<geoname>
<toponymName>Bukit Panjang New Town</toponymName>
<name>Bukit Panjang New Town</name>
<lat>1.37972</lat>
<lng>103.76472</lng>
<geonameId>1884367</geonameId>
<countryCode>SG</countryCode>
<countryName>Singapore</countryName>
<fcl>P</fcl>
<fcode>PPL</fcode>
</geoname>
<geoname>
<toponymName>Raffles Hotel</toponymName>
<name>Raffles Hotel</name>
<lat>1.2948</lat>
<lng>103.8546</lng>
<geonameId>6482825</geonameId>
<countryCode>SG</countryCode>
<countryName>Singapore</countryName>
<fcl>S</fcl>
<fcode>HTL</fcode>
</geoname>
<geoname>
<toponymName>Goodwood Park Hotel</toponymName>
<name>Goodwood Park Hotel</name>
<lat>1.3088</lat>
<lng>103.8337</lng>
<geonameId>6483106</geonameId>
<countryCode>SG</countryCode>
<countryName>Singapore</countryName>
<fcl>S</fcl>
<fcode>HTL</fcode>
</geoname>
<geoname>
<toponymName>The Scarlet Hotel</toponymName>
<name>The Scarlet Hotel</name>
<lat>1.2808</lat>
<lng>103.8451</lng>
<geonameId>6500209</geonameId>
<countryCode>SG</countryCode>
<countryName>Singapore</countryName>
<fcl>S</fcl>
<fcode>HTL</fcode>
</geoname>
<geoname>
<toponymName>Pulau Seringat</toponymName>
<name>Pulau Seringat</name>
<lat>1.23028</lat>
<lng>103.85417</lng>
<geonameId>1880263</geonameId>
<countryCode>SG</countryCode>
<countryName>Singapore</countryName>
<fcl>T</fcl>
<fcode>ISL</fcode>
</geoname>
<geoname>
<toponymName>Pulau Sanyongkong</toponymName>
<name>Pulau Sanyongkong</name>
<lat>1.395</lat>
<lng>104.06639</lng>
<geonameId>1880311</geonameId>
<countryCode>SG</countryCode>
<countryName>Singapore</countryName>
<fcl>T</fcl>
<fcode>ISL</fcode>
</geoname>
<geoname>
<toponymName>Pulau Ubin Estate</toponymName>
<name>Pulau Ubin Estate</name>
<lat>1.42444</lat>
<lng>103.93444</lng>
<geonameId>1880349</geonameId>
<countryCode>SG</countryCode>
<countryName>Singapore</countryName>
<fcl>L</fcl>
<fcode>LCTY</fcode>
</geoname>
<geoname>
<toponymName>Bukit Timah Nature Reserve</toponymName>
<name>Bukit Timah Nature Reserve</name>
<lat>1.38694</lat>
<lng>103.80083</lng>
<geonameId>1880355</geonameId>
<countryCode>SG</countryCode>
<countryName>Singapore</countryName>
<fcl>L</fcl>
<fcode>RESN</fcode>
</geoname>
<geoname>
<toponymName>Prawn Pond Reserve</toponymName>
<name>Prawn Pond Reserve</name>
<lat>1.31667</lat>
<lng>103.75</lng>
<geonameId>1880363</geonameId>
<countryCode>SG</countryCode>
<countryName>Singapore</countryName>
<fcl>L</fcl>
<fcode>RESN</fcode>
</geoname>
<geoname>
<toponymName>Pasir Panjang Park</toponymName>
<name>Pasir Panjang Park</name>
<lat>1.27583</lat>
<lng>103.79194</lng>
<geonameId>1880402</geonameId>
<countryCode>SG</countryCode>
<countryName>Singapore</countryName>
<fcl>L</fcl>
<fcode>RESN</fcode>
</geoname>
<geoname>
<toponymName>Pandan Nature Reserve</toponymName>
<name>Pandan Nature Reserve</name>
<lat>1.31667</lat>
<lng>103.73333</lng>
<geonameId>1880415</geonameId>
<countryCode>SG</countryCode>
<countryName>Singapore</countryName>
<fcl>L</fcl>
<fcode>RESN</fcode>
</geoname>
<geoname>
<toponymName>Ong Ting Lye Estate</toponymName>
<name>Ong Ting Lye Estate</name>
<lat>1.41139</lat>
<lng>103.98361</lng>
<geonameId>1880427</geonameId>
<countryCode>SG</countryCode>
<countryName>Singapore</countryName>
<fcl>L</fcl>
<fcode>LCTY</fcode>
</geoname>
<geoname>
<toponymName>Pulau Merlimau</toponymName>
<name>Pulau Merlimau</name>
<lat>1.28639</lat>
<lng>103.71222</lng>
<geonameId>1880455</geonameId>
<countryCode>SG</countryCode>
<countryName>Singapore</countryName>
<fcl>T</fcl>
<fcode>ISL</fcode>
</geoname>
<geoname>
<toponymName>Lam Hong Estate</toponymName>
<name>Lam Hong Estate</name>
<lat>1.41583</lat>
<lng>103.94417</lng>
<geonameId>1880495</geonameId>
<countryCode>SG</countryCode>
<countryName>Singapore</countryName>
<fcl>L</fcl>
<fcode>LCTY</fcode>
</geoname>
<geoname>
<toponymName>Kampong Pasir Ris</toponymName>
<name>Kampong Pasir Ris</name>
<lat>1.37833</lat>
<lng>103.93194</lng>
<geonameId>1880574</geonameId>
<countryCode>SG</countryCode>
<countryName>Singapore</countryName>
<fcl>P</fcl>
<fcode>PPL</fcode>
</geoname>
<geoname>
<toponymName>Chia Keng</toponymName>
<name>Chia Keng</name>
<lat>1.36</lat>
<lng>103.89167</lng>
<geonameId>1880712</geonameId>
<countryCode>SG</countryCode>
<countryName>Singapore</countryName>
<fcl>P</fcl>
<fcode>PPL</fcode>
</geoname>
<geoname>
<toponymName>Bukit Mandai Village</toponymName>
<name>Bukit Mandai Village</name>
<lat>1.41222</lat>
<lng>103.75667</lng>
<geonameId>1880751</geonameId>
<countryCode>SG</countryCode>
<countryName>Singapore</countryName>
<fcl>P</fcl>
<fcode>PPL</fcode>
</geoname>
<geoname>
<toponymName>Pulau Anak Bukum</toponymName>
<name>Pulau Anak Bukum</name>
<lat>1.225</lat>
<lng>103.77</lng>
<geonameId>1881650</geonameId>
<countryCode>SG</countryCode>
<countryName>Singapore</countryName>
<fcl>T</fcl>
<fcode>ISL</fcode>
</geoname>
<geoname>
<toponymName>Ayer Raja Industrial Estate</toponymName>
<name>Ayer Raja Industrial Estate</name>
<lat>1.29583</lat>
<lng>103.78972</lng>
<geonameId>1881917</geonameId>
<countryCode>SG</countryCode>
<countryName>Singapore</countryName>
<fcl>L</fcl>
<fcode>INDS</fcode>
</geoname>
<geoname>
<toponymName>Eunos Industrial Estate</toponymName>
<name>Eunos Industrial Estate</name>
<lat>1.32139</lat>
<lng>103.89861</lng>
<geonameId>1881923</geonameId>
<countryCode>SG</countryCode>
<countryName>Singapore</countryName>
<fcl>L</fcl>
<fcode>INDS</fcode>
</geoname>
<geoname>
<toponymName>Jurong Industrial Estate</toponymName>
<name>Jurong Industrial Estate</name>
<lat>1.3175</lat>
<lng>103.68972</lng>
<geonameId>1881954</geonameId>
<countryCode>SG</countryCode>
<countryName>Singapore</countryName>
<fcl>L</fcl>
<fcode>INDS</fcode>
</geoname>
<geoname>
<toponymName>Kallang Basin Industrial Estate</toponymName>
<name>Kallang Basin Industrial Estate</name>
<lat>1.32111</lat>
<lng>103.86917</lng>
<geonameId>1881958</geonameId>
<countryCode>SG</countryCode>
<countryName>Singapore</countryName>
<fcl>L</fcl>
<fcode>INDS</fcode>
</geoname>
<geoname>
<toponymName>Kallang Park Industrial Estate</toponymName>
<name>Kallang Park Industrial Estate</name>
<lat>1.30111</lat>
<lng>103.88056</lng>
<geonameId>1881960</geonameId>
<countryCode>SG</countryCode>
<countryName>Singapore</countryName>
<fcl>L</fcl>
<fcode>INDS</fcode>
</geoname>
<geoname>
<toponymName>Kallang Way Industrial Estate</toponymName>
<name>Kallang Way Industrial Estate</name>
<lat>1.32389</lat>
<lng>103.87778</lng>
<geonameId>1881961</geonameId>
<countryCode>SG</countryCode>
<countryName>Singapore</countryName>
<fcl>L</fcl>
<fcode>INDS</fcode>
</geoname>
<geoname>
<toponymName>Kampong Ampat Industrial Estate</toponymName>
<name>Kampong Ampat Industrial Estate</name>
<lat>1.33306</lat>
<lng>103.885</lng>
<geonameId>1881962</geonameId>
<countryCode>SG</countryCode>
<countryName>Singapore</countryName>
<fcl>L</fcl>
<fcode>INDS</fcode>
</geoname>
<geoname>
<toponymName>Kampong Tiong Bahru Industrial Estate</toponymName>
<name>Kampong Tiong Bahru Industrial Estate</name>
<lat>1.28222</lat>
<lng>103.825</lng>
<geonameId>1881963</geonameId>
<countryCode>SG</countryCode>
<countryName>Singapore</countryName>
<fcl>L</fcl>
<fcode>INDS</fcode>
</geoname>
<geoname>
<toponymName>Kampong Ubi Industrial Park</toponymName>
<name>Kampong Ubi Industrial Park</name>
<lat>1.33</lat>
<lng>103.90722</lng>
<geonameId>1881964</geonameId>
<countryCode>SG</countryCode>
<countryName>Singapore</countryName>
<fcl>L</fcl>
<fcode>INDS</fcode>
</geoname>
<geoname>
<toponymName>Krangji Industrial Estate</toponymName>
<name>Krangji Industrial Estate</name>
<lat>1.43583</lat>
<lng>103.74861</lng>
<geonameId>1881968</geonameId>
<countryCode>SG</countryCode>
<countryName>Singapore</countryName>
<fcl>L</fcl>
<fcode>INDS</fcode>
</geoname>
<geoname>
<toponymName>Kranji Nature Reserve</toponymName>
<name>Kranji Nature Reserve</name>
<lat>1.42889</lat>
<lng>103.75861</lng>
<geonameId>1881970</geonameId>
<countryCode>SG</countryCode>
<countryName>Singapore</countryName>
<fcl>L</fcl>
<fcode>RESN</fcode>
</geoname>
<geoname>
<toponymName>Choa Chu Kang</toponymName>
<name>Choa Chu Kang</name>
<lat>1.41083</lat>
<lng>103.71139</lng>
<geonameId>1882007</geonameId>
<countryCode>SG</countryCode>
<countryName>Singapore</countryName>
<fcl>L</fcl>
<fcode>LCTY</fcode>
</geoname>
<geoname>
<toponymName>Kampong Chai Chee</toponymName>
<name>Kampong Chai Chee</name>
<lat>1.33833</lat>
<lng>103.91389</lng>
<geonameId>1882019</geonameId>
<countryCode>SG</countryCode>
<countryName>Singapore</countryName>
<fcl>L</fcl>
<fcode>LCTY</fcode>
</geoname>
<geoname>
<toponymName>Loyang Industrial Estate</toponymName>
<name>Loyang Industrial Estate</name>
<lat>1.37472</lat>
<lng>103.97028</lng>
<geonameId>1882032</geonameId>
<countryCode>SG</countryCode>
<countryName>Singapore</countryName>
<fcl>L</fcl>
<fcode>INDS</fcode>
</geoname>
<geoname>
<toponymName>MacRitchie Reservoir Park</toponymName>
<name>MacRitchie Reservoir Park</name>
<lat>1.34472</lat>
<lng>103.83472</lng>
<geonameId>1882034</geonameId>
<countryCode>SG</countryCode>
<countryName>Singapore</countryName>
<fcl>L</fcl>
<fcode>RESN</fcode>
</geoname>
<geoname>
<toponymName>Queen Elizabeth Walk</toponymName>
<name>Queen Elizabeth Walk</name>
<lat>1.28972</lat>
<lng>103.85528</lng>
<geonameId>1882076</geonameId>
<countryCode>SG</countryCode>
<countryName>Singapore</countryName>
<fcl>L</fcl>
<fcode>RESN</fcode>
</geoname>
<geoname>
<toponymName>Seletar Industrial Estate</toponymName>
<name>Seletar Industrial Estate</name>
<lat>1.41972</lat>
<lng>103.86444</lng>
<geonameId>1882096</geonameId>
<countryCode>SG</countryCode>
<countryName>Singapore</countryName>
<fcl>L</fcl>
<fcode>INDS</fcode>
</geoname>
<geoname>
<toponymName>Senoko Industrial Estate</toponymName>
<name>Senoko Industrial Estate</name>
<lat>1.465</lat>
<lng>103.83278</lng>
<geonameId>1882098</geonameId>
<countryCode>SG</countryCode>
<countryName>Singapore</countryName>
<fcl>L</fcl>
<fcode>INDS</fcode>
</geoname>
<geoname>
<toponymName>Sims Avenue Industrial Estate</toponymName>
<name>Sims Avenue Industrial Estate</name>
<lat>1.31528</lat>
<lng>103.87917</lng>
<geonameId>1882104</geonameId>
<countryCode>SG</countryCode>
<countryName>Singapore</countryName>
<fcl>L</fcl>
<fcode>INDS</fcode>
</geoname>
<geoname>
<toponymName>Sin Ming Industrial Estate</toponymName>
<name>Sin Ming Industrial Estate</name>
<lat>1.36111</lat>
<lng>103.83944</lng>
<geonameId>1882105</geonameId>
<countryCode>SG</countryCode>
<countryName>Singapore</countryName>
<fcl>L</fcl>
<fcode>INDS</fcode>
</geoname>
<geoname>
<toponymName>Sungei Kadut Industrial Estate</toponymName>
<name>Sungei Kadut Industrial Estate</name>
<lat>1.41889</lat>
<lng>103.74917</lng>
<geonameId>1882112</geonameId>
<countryCode>SG</countryCode>
<countryName>Singapore</countryName>
<fcl>L</fcl>
<fcode>INDS</fcode>
</geoname>
<geoname>
<toponymName>Telok Blangah Industrial Estate</toponymName>
<name>Telok Blangah Industrial Estate</name>
<lat>1.29778</lat>
<lng>103.78556</lng>
<geonameId>1882122</geonameId>
<countryCode>SG</countryCode>
<countryName>Singapore</countryName>
<fcl>L</fcl>
<fcode>INDS</fcode>
</geoname>
<geoname>
<toponymName>Toa Payoh Industrial Estate</toponymName>
<name>Toa Payoh Industrial Estate</name>
<lat>1.33222</lat>
<lng>103.85444</lng>
<geonameId>1882148</geonameId>
<countryCode>SG</countryCode>
<countryName>Singapore</countryName>
<fcl>L</fcl>
<fcode>INDS</fcode>
</geoname>
<geoname>
<toponymName>Marsiling Industrial Estate</toponymName>
<name>Marsiling Industrial Estate</name>
<lat>1.44083</lat>
<lng>103.78222</lng>
<geonameId>1882334</geonameId>
<countryCode>SG</countryCode>
<countryName>Singapore</countryName>
<fcl>L</fcl>
<fcode>INDS</fcode>
</geoname>
<geoname>
<toponymName>Seletar Reservoir Park</toponymName>
<name>Seletar Reservoir Park</name>
<lat>1.39972</lat>
<lng>103.80694</lng>
<geonameId>1882361</geonameId>
<countryCode>SG</countryCode>
<countryName>Singapore</countryName>
<fcl>L</fcl>
<fcode>PRK</fcode>
</geoname>
<geoname>
<toponymName>Serangoon</toponymName>
<name>Serangoon</name>
<lat>1.35119</lat>
<lng>103.8723</lng>
<geonameId>1882401</geonameId>
<countryCode>SG</countryCode>
<countryName>Singapore</countryName>
<fcl>P</fcl>
<fcode>PPL</fcode>
</geoname>
<geoname>
<toponymName>Ang Mo Kio Park</toponymName>
<name>Ang Mo Kio Park</name>
<lat>1.36028</lat>
<lng>103.84889</lng>
<geonameId>1882560</geonameId>
<countryCode>SG</countryCode>
<countryName>Singapore</countryName>
<fcl>L</fcl>
<fcode>PRK</fcode>
</geoname>
<geoname>
<toponymName>Mount Faber Scenic Park</toponymName>
<name>Mount Faber Scenic Park</name>
<lat>1.27222</lat>
<lng>103.82083</lng>
<geonameId>1882738</geonameId>
<countryCode>SG</countryCode>
<countryName>Singapore</countryName>
<fcl>L</fcl>
<fcode>PRK</fcode>
</geoname>
<geoname>
<toponymName>Bukit Prigi Kling</toponymName>
<name>Bukit Prigi Kling</name>
<lat>1.16861</lat>
<lng>103.73889</lng>
<geonameId>1882801</geonameId>
<countryCode>SG</countryCode>
<countryName>Singapore</countryName>
<fcl>T</fcl>
<fcode>HLL</fcode>
</geoname>
<geoname>
<toponymName>Tanjong Pagar Terminal</toponymName>
<name>Tanjong Pagar Terminal</name>
<lat>1.2675</lat>
<lng>103.85139</lng>
<geonameId>1882912</geonameId>
<countryCode>SG</countryCode>
<countryName>Singapore</countryName>
<fcl>L</fcl>
<fcode>PRT</fcode>
</geoname>
<geoname>
<toponymName>Punggol Fishing Port</toponymName>
<name>Punggol Fishing Port</name>
<lat>1.40417</lat>
<lng>103.91833</lng>
<geonameId>1884240</geonameId>
<countryCode>SG</countryCode>
<countryName>Singapore</countryName>
<fcl>L</fcl>
<fcode>PRT</fcode>
</geoname>
<geoname>
<toponymName>Jurong Hill Park</toponymName>
<name>Jurong Hill Park</name>
<lat>1.31861</lat>
<lng>103.70639</lng>
<geonameId>1884285</geonameId>
<countryCode>SG</countryCode>
<countryName>Singapore</countryName>
<fcl>L</fcl>
<fcode>RESN</fcode>
</geoname>
<geoname>
<toponymName>Bukit Batok Nature Park</toponymName>
<name>Bukit Batok Nature Park</name>
<lat>1.34889</lat>
<lng>103.76528</lng>
<geonameId>1884296</geonameId>
<countryCode>SG</countryCode>
<countryName>Singapore</countryName>
<fcl>L</fcl>
<fcode>RESN</fcode>
</geoname>
<geoname>
<toponymName>Kampong Java Park</toponymName>
<name>Kampong Java Park</name>
<lat>1.31083</lat>
<lng>103.84611</lng>
<geonameId>1884307</geonameId>
<countryCode>SG</countryCode>
<countryName>Singapore</countryName>
<fcl>L</fcl>
<fcode>PRK</fcode>
</geoname>
<geoname>
<toponymName>Defu Industrial Estate</toponymName>
<name>Defu Industrial Estate</name>
<lat>1.35806</lat>
<lng>103.90528</lng>
<geonameId>1884340</geonameId>
<countryCode>SG</countryCode>
<countryName>Singapore</countryName>
<fcl>L</fcl>
<fcode>INDS</fcode>
</geoname>
<geoname>
<toponymName>Woodlands Industrial Park East</toponymName>
<name>Woodlands Industrial Park East</name>
<lat>1.45472</lat>
<lng>103.80083</lng>
<geonameId>1884368</geonameId>
<countryCode>SG</countryCode>
<countryName>Singapore</countryName>
<fcl>L</fcl>
<fcode>INDS</fcode>
</geoname>
<geoname>
<toponymName>Yishun Industrial Park</toponymName>
<name>Yishun Industrial Park</name>
<lat>1.44528</lat>
<lng>103.835</lng>
<geonameId>1884370</geonameId>
<countryCode>SG</countryCode>
<countryName>Singapore</countryName>
<fcl>L</fcl>
<fcode>INDS</fcode>
</geoname>
<geoname>
<toponymName>Woodlands Industrial Park</toponymName>
<name>Woodlands Industrial Park</name>
<lat>1.43389</lat>
<lng>103.76333</lng>
<geonameId>1884371</geonameId>
<countryCode>SG</countryCode>
<countryName>Singapore</countryName>
<fcl>L</fcl>
<fcode>INDS</fcode>
</geoname>
<geoname>
<toponymName>Pulau Merlimau Industrial Estate</toponymName>
<name>Pulau Merlimau Industrial Estate</name>
<lat>1.28667</lat>
<lng>103.7125</lng>
<geonameId>1884395</geonameId>
<countryCode>SG</countryCode>
<countryName>Singapore</countryName>
<fcl>L</fcl>
<fcode>INDS</fcode>
</geoname>
<geoname>
<toponymName>Pulau Meskol Industrial Estate</toponymName>
<name>Pulau Meskol Industrial Estate</name>
<lat>1.28028</lat>
<lng>103.71694</lng>
<geonameId>1884398</geonameId>
<countryCode>SG</countryCode>
<countryName>Singapore</countryName>
<fcl>L</fcl>
<fcode>INDS</fcode>
</geoname>
<geoname>
<toponymName>Pulau Pesek Industrial Estate</toponymName>
<name>Pulau Pesek Industrial Estate</name>
<lat>1.28556</lat>
<lng>103.68861</lng>
<geonameId>1884399</geonameId>
<countryCode>SG</countryCode>
<countryName>Singapore</countryName>
<fcl>L</fcl>
<fcode>INDS</fcode>
</geoname>
<geoname>
<toponymName>Pulau Seraya Industrial Estate</toponymName>
<name>Pulau Seraya Industrial Estate</name>
<lat>1.27778</lat>
<lng>103.72778</lng>
<geonameId>1884400</geonameId>
<countryCode>SG</countryCode>
<countryName>Singapore</countryName>
<fcl>L</fcl>
<fcode>INDS</fcode>
</geoname>
<geoname>
<toponymName>Tanglin Halt Industrial Estate</toponymName>
<name>Tanglin Halt Industrial Estate</name>
<lat>1.30444</lat>
<lng>103.79472</lng>
<geonameId>1884401</geonameId>
<countryCode>SG</countryCode>
<countryName>Singapore</countryName>
<fcl>L</fcl>
<fcode>INDS</fcode>
</geoname>
<geoname>
<toponymName>Tanjong Rhu Industrial Estate</toponymName>
<name>Tanjong Rhu Industrial Estate</name>
<lat>1.29667</lat>
<lng>103.86917</lng>
<geonameId>1884402</geonameId>
<countryCode>SG</countryCode>
<countryName>Singapore</countryName>
<fcl>L</fcl>
<fcode>INDS</fcode>
</geoname>
<geoname>
<toponymName>Bukit Pasir Panjang</toponymName>
<name>Bukit Pasir Panjang</name>
<lat>1.28306</lat>
<lng>103.79111</lng>
<geonameId>1885190</geonameId>
<countryCode>SG</countryCode>
<countryName>Singapore</countryName>
<fcl>T</fcl>
<fcode>HLL</fcode>
</geoname>
<geoname>
<toponymName>Chua Chu Kang</toponymName>
<name>Chua Chu Kang</name>
<lat>1.42778</lat>
<lng>103.69806</lng>
<geonameId>1885272</geonameId>
<countryCode>SG</countryCode>
<countryName>Singapore</countryName>
<fcl>L</fcl>
<fcode>LCTY</fcode>
</geoname>
<geoname>
<toponymName>Admiralty</toponymName>
<name>Admiralty</name>
<lat>1.44069</lat>
<lng>103.80093</lng>
<geonameId>7289739</geonameId>
<countryCode>SG</countryCode>
<countryName>Singapore</countryName>
<fcl>P</fcl>
<fcode>PPLX</fcode>
</geoname>
<geoname>
<toponymName>Novena</toponymName>
<name>Novena</name>
<lat>1.31697</lat>
<lng>103.8438</lng>
<geonameId>7281987</geonameId>
<countryCode>SG</countryCode>
<countryName>Singapore</countryName>
<fcl>P</fcl>
<fcode>PPL</fcode>
</geoname>
<geoname>
<toponymName>Central Catchment Natural Reserve</toponymName>
<name>Central Catchment Natural Reserve</name>
<lat>1.39</lat>
<lng>103.79</lng>
<geonameId>6942285</geonameId>
<countryCode>SG</countryCode>
<countryName>Singapore</countryName>
<fcl>L</fcl>
<fcode>RES</fcode>
</geoname>
<geoname>
<toponymName>Dairy Farm Nature Park</toponymName>
<name>Dairy Farm Nature Park</name>
<lat>1.36248</lat>
<lng>103.77522</lng>
<geonameId>11694442</geonameId>
<countryCode>SG</countryCode>
<countryName>Singapore</countryName>
<fcl>L</fcl>
<fcode>PRK</fcode>
</geoname>
<geoname>
<toponymName>Bukit Timah Nature Reserve</toponymName>
<name>Bukit Timah Nature Reserve</name>
<lat>1.34896</lat>
<lng>103.77754</lng>
<geonameId>11694443</geonameId>
<countryCode>SG</countryCode>
<countryName>Singapore</countryName>
<fcl>L</fcl>
<fcode>RESN</fcode>
</geoname>
<geoname>
<toponymName>South East</toponymName>
<name>South East</name>
<lat>1.33333</lat>
<lng>103.96667</lng>
<geonameId>11605739</geonameId>
<countryCode>SG</countryCode>
<countryName>Singapore</countryName>
<fcl>A</fcl>
<fcode>ADMD</fcode>
</geoname>
<geoname>
<toponymName>South West</toponymName>
<name>South West</name>
<lat>1.33333</lat>
<lng>103.7</lng>
<geonameId>11605740</geonameId>
<countryCode>SG</countryCode>
<countryName>Singapore</countryName>
<fcl>A</fcl>
<fcode>ADMD</fcode>
</geoname>
<geoname>
<toponymName>North West</toponymName>
<name>North West</name>
<lat>1.4</lat>
<lng>103.78333</lng>
<geonameId>11605741</geonameId>
<countryCode>SG</countryCode>
<countryName>Singapore</countryName>
<fcl>A</fcl>
<fcode>ADMD</fcode>
</geoname>
<geoname>
<toponymName>North East</toponymName>
<name>North East</name>
<lat>1.35</lat>
<lng>103.91667</lng>
<geonameId>11605742</geonameId>
<countryCode>SG</countryCode>
<countryName>Singapore</countryName>
<fcl>A</fcl>
<fcode>ADMD</fcode>
</geoname>
<geoname>
<toponymName>Singapore United Plantation</toponymName>
<name>Singapore United Plantation</name>
<lat>1.37917</lat>
<lng>103.85778</lng>
<geonameId>1880247</geonameId>
<countryCode>SG</countryCode>
<countryName>Singapore</countryName>
<fcl>P</fcl>
<fcode>PPLL</fcode>
</geoname>
<geoname>
<toponymName>Singapur</toponymName>
<name>Singapur</name>
<lat>27.44476</lat>
<lng>-110.23389</lng>
<geonameId>3983029</geonameId>
<countryCode>MX</countryCode>
<countryName>Mexico</countryName>
<fcl>P</fcl>
<fcode>PPL</fcode>
</geoname>
<geoname>
<toponymName>Singapur</toponymName>
<name>Singapur</name>
<lat>15.01083</lat>
<lng>-92.44528</lng>
<geonameId>8946991</geonameId>
<countryCode>MX</countryCode>
<countryName>Mexico</countryName>
<fcl>P</fcl>
<fcode>PPL</fcode>
</geoname>
<geoname>
<toponymName>Yew Tee</toponymName>
<name>Yew Tee</name>
<lat>1.39444</lat>
<lng>103.75389</lng>
<geonameId>1880137</geonameId>
<countryCode>SG</countryCode>
<countryName>Singapore</countryName>
<fcl>P</fcl>
<fcode>PPL</fcode>
</geoname>
<geoname>
<toponymName>Mount Vernon</toponymName>
<name>Mount Vernon</name>
<lat>1.33583</lat>
<lng>103.8975</lng>
<geonameId>1880155</geonameId>
<countryCode>SG</countryCode>
<countryName>Singapore</countryName>
<fcl>P</fcl>
<fcode>PPLX</fcode>
</geoname>
<geoname>
<toponymName>Pulau Unum</toponymName>
<name>Pulau Unum</name>
<lat>1.43306</lat>
<lng>104.05583</lng>
<geonameId>1880157</geonameId>
<countryCode>SG</countryCode>
<countryName>Singapore</countryName>
<fcl>T</fcl>
<fcode>ISL</fcode>
</geoname>
<geoname>
<toponymName>Malang Tiga</toponymName>
<name>Malang Tiga</name>
<lat>1.38917</lat>
<lng>104.02861</lng>
<geonameId>1880181</geonameId>
<countryCode>SG</countryCode>
<countryName>Singapore</countryName>
<fcl>T</fcl>
<fcode>RKS</fcode>
</geoname>
<geoname>
<toponymName>Tai Seng</toponymName>
<name>Tai Seng</name>
<lat>1.33611</lat>
<lng>103.90361</lng>
<geonameId>1880219</geonameId>
<countryCode>SG</countryCode>
<countryName>Singapore</countryName>
<fcl>P</fcl>
<fcode>PPLX</fcode>
</geoname>
<geoname>
<toponymName>Sungai Simpang</toponymName>
<name>Sungai Simpang</name>
<lat>1.43806</lat>
<lng>103.82667</lng>
<geonameId>1880226</geonameId>
<countryCode>SG</countryCode>
<countryName>Singapore</countryName>
<fcl>P</fcl>
<fcode>PPL</fcode>
</geoname>
<geoname>
<toponymName>Tanjong Skopek</toponymName>
<name>Tanjong Skopek</name>
<lat>1.38333</lat>
<lng>103.65722</lng>
<geonameId>1880244</geonameId>
<countryCode>SG</countryCode>
<countryName>Singapore</countryName>
<fcl>T</fcl>
<fcode>PT</fcode>
</geoname>
<geoname>
<toponymName>Pulau Seraya</toponymName>
<name>Pulau Seraya</name>
<lat>1.2775</lat>
<lng>103.7275</lng>
<geonameId>1880264</geonameId>
<countryCode>SG</countryCode>
<countryName>Singapore</countryName>
<fcl>T</fcl>
<fcode>ISL</fcode>
</geoname>
<geoname>
<toponymName>Seletar</toponymName>
<name>Seletar</name>
<lat>1.41</lat>
<lng>103.87417</lng>
<geonameId>1880294</geonameId>
<countryCode>SG</countryCode>
<countryName>Singapore</countryName>
<fcl>P</fcl>
<fcode>PPL</fcode>
</geoname>
<geoname>
<toponymName>Tanjong Sakunyit</toponymName>
<name>Tanjong Sakunyit</name>
<lat>1.30111</lat>
<lng>103.69361</lng>
<geonameId>1880319</geonameId>
<countryCode>SG</countryCode>
<countryName>Singapore</countryName>
<fcl>T</fcl>
<fcode>PT</fcode>
</geoname>
<geoname>
<toponymName>Pulau Sakijang Pelepah</toponymName>
<name>Pulau Sakijang Pelepah</name>
<lat>1.22222</lat>
<lng>103.855</lng>
<geonameId>1880322</geonameId>
<countryCode>SG</countryCode>
<countryName>Singapore</countryName>
<fcl>T</fcl>
<fcode>ISL</fcode>
</geoname>
<geoname>
<toponymName>Pulau Sakeng</toponymName>
<name>Pulau Sakeng</name>
<lat>1.20722</lat>
<lng>103.77806</lng>
<geonameId>1880324</geonameId>
<countryCode>SG</countryCode>
<countryName>Singapore</countryName>
<fcl>T</fcl>
<fcode>ISL</fcode>
</geoname>
<geoname>
<toponymName>Saga</toponymName>
<name>Saga</name>
<lat>1.26667</lat>
<lng>103.83333</lng>
<geonameId>1880329</geonameId>
<countryCode>SG</countryCode>
<countryName>Singapore</countryName>
<fcl>P</fcl>
<fcode>PPL</fcode>
</geoname>
<geoname>
<toponymName>Tanjong Rhu</toponymName>
<name>Tanjong Rhu</name>
<lat>1.29771</lat>
<lng>103.86614</lng>
<geonameId>1880335</geonameId>
<countryCode>SG</countryCode>
<countryName>Singapore</countryName>
<fcl>T</fcl>
<fcode>CAPE</fcode>
</geoname>
<geoname>
<toponymName>Tanjong Renggam</toponymName>
<name>Tanjong Renggam</name>
<lat>1.43083</lat>
<lng>104.045</lng>
<geonameId>1880337</geonameId>
<countryCode>SG</countryCode>
<countryName>Singapore</countryName>
<fcl>T</fcl>
<fcode>PT</fcode>
</geoname>
<geoname>
<toponymName>Punggol</toponymName>
<name>Punggol</name>
<lat>1.41444</lat>
<lng>103.90694</lng>
<geonameId>1880348</geonameId>
<countryCode>SG</countryCode>
<countryName>Singapore</countryName>
<fcl>P</fcl>
<fcode>PPL</fcode>
</geoname>
<geoname>
<toponymName>Pulau Ubin Village</toponymName>
<name>Pulau Ubin Village</name>
<lat>1.40333</lat>
<lng>103.97139</lng>
<geonameId>1880351</geonameId>
<countryCode>SG</countryCode>
<countryName>Singapore</countryName>
<fcl>P</fcl>
<fcode>PPL</fcode>
</geoname>
<geoname>
<toponymName>Bukit Piatu</toponymName>
<name>Bukit Piatu</name>
<lat>1.31667</lat>
<lng>103.63333</lng>
<geonameId>1880372</geonameId>
<countryCode>SG</countryCode>
<countryName>Singapore</countryName>
<fcl>T</fcl>
<fcode>HLL</fcode>
</geoname>
<geoname>
<toponymName>Tanjong Petemin</toponymName>
<name>Tanjong Petemin</name>
<lat>1.425</lat>
<lng>104.03167</lng>
<geonameId>1880375</geonameId>
<countryCode>SG</countryCode>
<countryName>Singapore</countryName>
<fcl>T</fcl>
<fcode>PT</fcode>
</geoname>
<geoname>
<toponymName>Pulau Pesek</toponymName>
<name>Pulau Pesek</name>
<lat>1.28528</lat>
<lng>103.68833</lng>
<geonameId>1880379</geonameId>
<countryCode>SG</countryCode>
<countryName>Singapore</countryName>
<fcl>T</fcl>
<fcode>ISL</fcode>
</geoname>
<geoname>
<toponymName>Tanjong Penjuru</toponymName>
<name>Tanjong Penjuru</name>
<lat>1.29778</lat>
<lng>103.755</lng>
<geonameId>1880389</geonameId>
<countryCode>SG</countryCode>
<countryName>Singapore</countryName>
<fcl>T</fcl>
<fcode>PT</fcode>
</geoname>
<geoname>
<toponymName>Tanjong Pasir</toponymName>
<name>Tanjong Pasir</name>
<lat>1.40972</lat>
<lng>104.08667</lng>
<geonameId>1880405</geonameId>
<countryCode>SG</countryCode>
<countryName>Singapore</countryName>
<fcl>T</fcl>
<fcode>PT</fcode>
</geoname>
<geoname>
<toponymName>Malang Papan</toponymName>
<name>Malang Papan</name>
<lat>1.40139</lat>
<lng>103.98972</lng>
<geonameId>1880411</geonameId>
<countryCode>SG</countryCode>
<countryName>Singapore</countryName>
<fcl>T</fcl>
<fcode>RK</fcode>
</geoname>
<geoname>
<toponymName>Nee Soon Estate</toponymName>
<name>Nee Soon Estate</name>
<lat>1.40278</lat>
<lng>103.81778</lng>
<geonameId>1880437</geonameId>
<countryCode>SG</countryCode>
<countryName>Singapore</countryName>
<fcl>P</fcl>
<fcode>PPL</fcode>
</geoname>
<geoname>
<toponymName>Pulau Merawang</toponymName>
<name>Pulau Merawang</name>
<lat>1.33333</lat>
<lng>103.63333</lng>
<geonameId>1880458</geonameId>
<countryCode>SG</countryCode>
<countryName>Singapore</countryName>
<fcl>T</fcl>
<fcode>ISL</fcode>
</geoname>
<geoname>
<toponymName>Marsiling</toponymName>
<name>Marsiling</name>
<lat>1.44111</lat>
<lng>103.77083</lng>
<geonameId>1880469</geonameId>
<countryCode>SG</countryCode>
<countryName>Singapore</countryName>
<fcl>P</fcl>
<fcode>PPL</fcode>
</geoname>
<geoname>
<toponymName>Batu Malang Beldaun</toponymName>
<name>Batu Malang Beldaun</name>
<lat>1.43694</lat>
<lng>104.06194</lng>
<geonameId>1880476</geonameId>
<countryCode>SG</countryCode>
<countryName>Singapore</countryName>
<fcl>T</fcl>
<fcode>RK</fcode>
</geoname>
<geoname>
<toponymName>Kampong Seminei</toponymName>
<name>Kampong Seminei</name>
<lat>1.40694</lat>
<lng>104.03944</lng>
<geonameId>1880555</geonameId>
<countryCode>SG</countryCode>
<countryName>Singapore</countryName>
<fcl>P</fcl>
<fcode>PPL</fcode>
</geoname>
<geoname>
<toponymName>Kampong Kranji</toponymName>
<name>Kampong Kranji</name>
<lat>1.43333</lat>
<lng>103.75</lng>
<geonameId>1880591</geonameId>
<countryCode>SG</countryCode>
<countryName>Singapore</countryName>
<fcl>P</fcl>
<fcode>PPL</fcode>
</geoname>
<geoname>
<toponymName>Jalan Kayu</toponymName>
<name>Jalan Kayu</name>
<lat>1.39722</lat>
<lng>103.87194</lng>
<geonameId>1880639</geonameId>
<countryCode>SG</countryCode>
<countryName>Singapore</countryName>
<fcl>P</fcl>
<fcode>PPL</fcode>
</geoname>
<geoname>
<toponymName>Geylang</toponymName>
<name>Geylang</name>
<lat>1.31953</lat>
<lng>103.88689</lng>
<geonameId>1880668</geonameId>
<countryCode>SG</countryCode>
<countryName>Singapore</countryName>
<fcl>P</fcl>
<fcode>PPLX</fcode>
</geoname>
<geoname>
<toponymName>Batu Gajah</toponymName>
<name>Batu Gajah</name>
<lat>1.25583</lat>
<lng>103.83694</lng>
<geonameId>1880673</geonameId>
<countryCode>SG</countryCode>
<countryName>Singapore</countryName>
<fcl>T</fcl>
<fcode>RKS</fcode>
</geoname>
<geoname>
<toponymName>Fort Canning Hill</toponymName>
<name>Fort Canning Hill</name>
<lat>1.29342</lat>
<lng>103.84673</lng>
<geonameId>1880676</geonameId>
<countryCode>SG</countryCode>
<countryName>Singapore</countryName>
<fcl>T</fcl>
<fcode>HLL</fcode>
</geoname>
<geoname>
<toponymName>Mount Embiah</toponymName>
<name>Mount Embiah</name>
<lat>1.25694</lat>
<lng>103.81472</lng>
<geonameId>1880684</geonameId>
<countryCode>SG</countryCode>
<countryName>Singapore</countryName>
<fcl>T</fcl>
<fcode>HLL</fcode>
</geoname>
<geoname>
<toponymName>Tanjong Chombun</toponymName>
<name>Tanjong Chombun</name>
<lat>1.28972</lat>
<lng>103.69361</lng>
<geonameId>1880703</geonameId>
<countryCode>SG</countryCode>
<countryName>Singapore</countryName>
<fcl>T</fcl>
<fcode>PT</fcode>
</geoname>
<geoname>
<toponymName>Changi Hill</toponymName>
<name>Changi Hill</name>
<lat>1.38389</lat>
<lng>103.98361</lng>
<geonameId>1880724</geonameId>
<countryCode>SG</countryCode>
<countryName>Singapore</countryName>
<fcl>T</fcl>
<fcode>HLL</fcode>
</geoname>
<geoname>
<toponymName>Pulau Buran</toponymName>
<name>Pulau Buran</name>
<lat>1.23889</lat>
<lng>103.84667</lng>
<geonameId>1880733</geonameId>
<countryCode>SG</countryCode>
<countryName>Singapore</countryName>
<fcl>T</fcl>
<fcode>ISL</fcode>
</geoname>
<geoname>
<toponymName>Pulau Bukum Kechil</toponymName>
<name>Pulau Bukum Kechil</name>
<lat>1.2275</lat>
<lng>103.76528</lng>
<geonameId>1880740</geonameId>
<countryCode>SG</countryCode>
<countryName>Singapore</countryName>
<fcl>T</fcl>
<fcode>ISL</fcode>
</geoname>
<geoname>
<toponymName>Batu Belalai</toponymName>
<name>Batu Belalai</name>
<lat>1.43083</lat>
<lng>104.06944</lng>
<geonameId>1880784</geonameId>
<countryCode>SG</countryCode>
<countryName>Singapore</countryName>
<fcl>T</fcl>
<fcode>RKS</fcode>
</geoname>
<geoname>
<toponymName>Pedra Branca</toponymName>
<name>Pedra Branca</name>
<lat>1.33027</lat>
<lng>104.40588</lng>
<geonameId>1880787</geonameId>
<countryCode>SG</countryCode>
<countryName>Singapore</countryName>
<fcl>T</fcl>
<fcode>ISL</fcode>
</geoname>
<geoname>
<toponymName>Tanjong Balai</toponymName>
<name>Tanjong Balai</name>
<lat>1.41806</lat>
<lng>103.98833</lng>
<geonameId>1880798</geonameId>
<countryCode>SG</countryCode>
<countryName>Singapore</countryName>
<fcl>T</fcl>
<fcode>PT</fcode>
</geoname>
<geoname>
<toponymName>Serangoon New Town</toponymName>
<name>Serangoon New Town</name>
<lat>1.35083</lat>
<lng>103.87083</lng>
<geonameId>1882101</geonameId>
<countryCode>SG</countryCode>
<countryName>Singapore</countryName>
<fcl>P</fcl>
<fcode>PPLX</fcode>
</geoname>
<geoname>
<toponymName>Saint Michael’s Industrial Estate</toponymName>
<name>Saint Michael’s Industrial Estate</name>
<lat>1.32917</lat>
<lng>103.85639</lng>
<geonameId>1882108</geonameId>
<countryCode>SG</countryCode>
<countryName>Singapore</countryName>
<fcl>L</fcl>
<fcode>INDS</fcode>
</geoname>
<geoname>
<toponymName>Yishun New Town</toponymName>
<name>Yishun New Town</name>
<lat>1.43333</lat>
<lng>103.83111</lng>
<geonameId>1882155</geonameId>
<countryCode>SG</countryCode>
<countryName>Singapore</countryName>
<fcl>P</fcl>
<fcode>PPL</fcode>
</geoname>
<geoname>
<toponymName>Woodlands New Town</toponymName>
<name>Woodlands New Town</name>
<lat>1.44444</lat>
<lng>103.77667</lng>
<geonameId>1882316</geonameId>
<countryCode>SG</countryCode>
<countryName>Singapore</countryName>
<fcl>P</fcl>
<fcode>PPL</fcode>
</geoname>
<geoname>
<toponymName>Aik Hong and Aik Chiang Estate</toponymName>
<name>Aik Hong and Aik Chiang Estate</name>
<lat>1.38639</lat>
<lng>103.77472</lng>
<geonameId>1882327</geonameId>
<countryCode>SG</countryCode>
<countryName>Singapore</countryName>
<fcl>L</fcl>
<fcode>LCTY</fcode>
</geoname>
<geoname>
<toponymName>Sembawang</toponymName>
<name>Sembawang</name>
<lat>1.42556</lat>
<lng>103.81611</lng>
<geonameId>1882530</geonameId>
<countryCode>SG</countryCode>
<countryName>Singapore</countryName>
<fcl>S</fcl>
<fcode>AIRF</fcode>
</geoname>
<geoname>
<toponymName>Marine Parade</toponymName>
<name>Marine Parade</name>
<lat>1.30306</lat>
<lng>103.90778</lng>
<geonameId>1882778</geonameId>
<countryCode>SG</countryCode>
<countryName>Singapore</countryName>
<fcl>P</fcl>
<fcode>PPL</fcode>
</geoname>
<geoname>
<toponymName>Clementi</toponymName>
<name>Clementi</name>
<lat>1.31472</lat>
<lng>103.76889</lng>
<geonameId>1884316</geonameId>
<countryCode>SG</countryCode>
<countryName>Singapore</countryName>
<fcl>S</fcl>
<fcode>TRIG</fcode>
</geoname>
<geoname>
<toponymName>Eunos</toponymName>
<name>Eunos</name>
<lat>1.32694</lat>
<lng>103.91583</lng>
<geonameId>1884337</geonameId>
<countryCode>SG</countryCode>
<countryName>Singapore</countryName>
<fcl>S</fcl>
<fcode>TRIG</fcode>
</geoname>
<geoname>
<toponymName>Simei</toponymName>
<name>Simei</name>
<lat>1.3475</lat>
<lng>103.96389</lng>
<geonameId>1884345</geonameId>
<countryCode>SG</countryCode>
<countryName>Singapore</countryName>
<fcl>S</fcl>
<fcode>TRIG</fcode>
</geoname>
<geoname>
<toponymName>Ang Mo Kio Industrial Park</toponymName>
<name>Ang Mo Kio Industrial Park</name>
<lat>1.38889</lat>
<lng>103.84694</lng>
<geonameId>1884366</geonameId>
<countryCode>SG</countryCode>
<countryName>Singapore</countryName>
<fcl>L</fcl>
<fcode>INDS</fcode>
</geoname>
<geoname>
<toponymName>Yishun</toponymName>
<name>Yishun</name>
<lat>1.43139</lat>
<lng>103.82917</lng>
<geonameId>1884369</geonameId>
<countryCode>SG</countryCode>
<countryName>Singapore</countryName>
<fcl>S</fcl>
<fcode>TRIG</fcode>
</geoname>
<geoname>
<toponymName>Pulau Ayer Chawan Industrial Estate</toponymName>
<name>Pulau Ayer Chawan Industrial Estate</name>
<lat>1.27806</lat>
<lng>103.70194</lng>
<geonameId>1884393</geonameId>
<countryCode>SG</countryCode>
<countryName>Singapore</countryName>
<fcl>L</fcl>
<fcode>INDS</fcode>
</geoname>
<geoname>
<toponymName>Pulau Ayer Merbau Industrial Estate</toponymName>
<name>Pulau Ayer Merbau Industrial Estate</name>
<lat>1.26861</lat>
<lng>103.71528</lng>
<geonameId>1884394</geonameId>
<countryCode>SG</countryCode>
<countryName>Singapore</countryName>
<fcl>L</fcl>
<fcode>INDS</fcode>
</geoname>
<geoname>
<toponymName>Pulau Mesemut Darat Industrial Estate</toponymName>
<name>Pulau Mesemut Darat Industrial Estate</name>
<lat>1.285</lat>
<lng>103.72194</lng>
<geonameId>1884396</geonameId>
<countryCode>SG</countryCode>
<countryName>Singapore</countryName>
<fcl>L</fcl>
<fcode>INDS</fcode>
</geoname>
<geoname>
<toponymName>Pulau Mesemut Laut Industrial Estate</toponymName>
<name>Pulau Mesemut Laut Industrial Estate</name>
<lat>1.28861</lat>
<lng>103.72306</lng>
<geonameId>1884397</geonameId>
<countryCode>SG</countryCode>
<countryName>Singapore</countryName>
<fcl>L</fcl>
<fcode>INDS</fcode>
</geoname>
<geoname>
<toponymName>Embassy of Singapore</toponymName>
<name>Embassy of Singapore</name>
<lat>38.91289</lat>
<lng>-77.0422</lng>
<geonameId>4138465</geonameId>
<countryCode>US</countryCode>
<countryName>United States</countryName>
<fcl>S</fcl>
<fcode>BLDG</fcode>
</geoname>
<geoname>
<toponymName>Sengkang New Town</toponymName>
<name>Sengkang</name>
<lat>1.39167</lat>
<lng>103.89444</lng>
<geonameId>7289760</geonameId>
<countryCode>SG</countryCode>
<countryName>Singapore</countryName>
<fcl>P</fcl>
<fcode>PPL</fcode>
</geoname>
<geoname>
<toponymName>Night Safari</toponymName>
<name>Night Safari</name>
<lat>1.40226</lat>
<lng>103.78789</lng>
<geonameId>6942030</geonameId>
<countryCode>SG</countryCode>
<countryName>Singapore</countryName>
<fcl>P</fcl>
<fcode>PPL</fcode>
</geoname>
<geoname>
<toponymName>The Central</toponymName>
<name>The Central</name>
<lat>1.28928</lat>
<lng>103.84711</lng>
<geonameId>6940489</geonameId>
<countryCode>SG</countryCode>
<countryName>Singapore</countryName>
<fcl>S</fcl>
<fcode>MALL</fcode>
</geoname>
<geoname>
<toponymName>Merlion</toponymName>
<name>Merlion</name>
<lat>1.28694</lat>
<lng>103.855</lng>
<geonameId>6951478</geonameId>
<countryCode>SG</countryCode>
<countryName>Singapore</countryName>
<fcl>S</fcl>
<fcode>MNMT</fcode>
</geoname>
<geoname>
<toponymName>Kranji Racecourse</toponymName>
<name>Kranji Racecourse</name>
<lat>1.42301</lat>
<lng>103.76565</lng>
<geonameId>8378724</geonameId>
<countryCode>SG</countryCode>
<countryName>Singapore</countryName>
<fcl>S</fcl>
<fcode>RECR</fcode>
</geoname>
<geoname>
<toponymName>Yan Kit</toponymName>
<name>Yan Kit</name>
<lat>1.35722</lat>
<lng>103.97194</lng>
<geonameId>1880138</geonameId>
<countryCode>SG</countryCode>
<countryName>Singapore</countryName>
<fcl>P</fcl>
<fcode>PPLX</fcode>
</geoname>
<geoname>
<toponymName>Teck Hock</toponymName>
<name>Teck Hock</name>
<lat>1.3675</lat>
<lng>103.91611</lng>
<geonameId>1880205</geonameId>
<countryCode>SG</countryCode>
<countryName>Singapore</countryName>
<fcl>P</fcl>
<fcode>PPLX</fcode>
</geoname>
<geoname>
<toponymName>Tanglin</toponymName>
<name>Tanglin</name>
<lat>1.31667</lat>
<lng>103.81667</lng>
<geonameId>1880214</geonameId>
<countryCode>SG</countryCode>
<countryName>Singapore</countryName>
<fcl>P</fcl>
<fcode>PPLX</fcode>
</geoname>
<geoname>
<toponymName>Pulau Sebarok</toponymName>
<name>Middle Island</name>
<lat>1.20527</lat>
<lng>103.79593</lng>
<geonameId>1880302</geonameId>
<countryCode>SG</countryCode>
<countryName>Singapore</countryName>
<fcl>T</fcl>
<fcode>ISL</fcode>
</geoname>
<geoname>
<toponymName>Pasir Panjang</toponymName>
<name>Pasir Panjang</name>
<lat>1.29278</lat>
<lng>103.77083</lng>
<geonameId>1880401</geonameId>
<countryCode>SG</countryCode>
<countryName>Singapore</countryName>
<fcl>P</fcl>
<fcode>PPLX</fcode>
</geoname>
<geoname>
<toponymName>Mata Ikan</toponymName>
<name>Mata Ikan</name>
<lat>1.33611</lat>
<lng>103.975</lng>
<geonameId>1880465</geonameId>
<countryCode>SG</countryCode>
<countryName>Singapore</countryName>
<fcl>P</fcl>
<fcode>PPLX</fcode>
</geoname>
<geoname>
<toponymName>Radin Mas</toponymName>
<name>Radin Mas</name>
<lat>1.27389</lat>
<lng>103.82417</lng>
<geonameId>1880562</geonameId>
<countryCode>SG</countryCode>
<countryName>Singapore</countryName>
<fcl>P</fcl>
<fcode>PPLX</fcode>
</geoname>
<geoname>
<toponymName>Inner Roads</toponymName>
<name>Inner Roads</name>
<lat>1.28333</lat>
<lng>103.85</lng>
<geonameId>1880643</geonameId>
<countryCode>SG</countryCode>
<countryName>Singapore</countryName>
<fcl>H</fcl>
<fcode>RDST</fcode>
</geoname>
<geoname>
<toponymName>Hun Yeang</toponymName>
<name>Hun Yeang</name>
<lat>1.36861</lat>
<lng>103.93194</lng>
<geonameId>1880644</geonameId>
<countryCode>SG</countryCode>
<countryName>Singapore</countryName>
<fcl>P</fcl>
<fcode>PPLX</fcode>
</geoname>
<geoname>
<toponymName>Alexandra Estate</toponymName>
<name>Alexandra Estate</name>
<lat>1.29389</lat>
<lng>103.81972</lng>
<geonameId>1880825</geonameId>
<countryCode>SG</countryCode>
<countryName>Singapore</countryName>
<fcl>P</fcl>
<fcode>PPLX</fcode>
</geoname>
<geoname>
<toponymName>Changi Prison</toponymName>
<name>Changi Prison</name>
<lat>1.35611</lat>
<lng>103.97444</lng>
<geonameId>1882755</geonameId>
<countryCode>SG</countryCode>
<countryName>Singapore</countryName>
<fcl>S</fcl>
<fcode>PRN</fcode>
</geoname>
<geoname>
<toponymName>Bedok Village</toponymName>
<name>Bedok Village</name>
<lat>1.3225</lat>
<lng>103.96139</lng>
<geonameId>1882771</geonameId>
<countryCode>SG</countryCode>
<countryName>Singapore</countryName>
<fcl>P</fcl>
<fcode>PPLX</fcode>
</geoname>
<geoname>
<toponymName>Clementi New Town</toponymName>
<name>Clementi New Town</name>
<lat>1.31583</lat>
<lng>103.76472</lng>
<geonameId>1884384</geonameId>
<countryCode>SG</countryCode>
<countryName>Singapore</countryName>
<fcl>P</fcl>
<fcode>PPLX</fcode>
</geoname>
<geoname>
<toponymName>Pasir Ris New Town</toponymName>
<name>Pasir Ris New Town</name>
<lat>1.37222</lat>
<lng>103.94778</lng>
<geonameId>1884385</geonameId>
<countryCode>SG</countryCode>
<countryName>Singapore</countryName>
<fcl>P</fcl>
<fcode>PPLX</fcode>
</geoname>
<geoname>
<toponymName>Telok Blangah New Town</toponymName>
<name>Telok Blangah New Town</name>
<lat>1.27472</lat>
<lng>103.81167</lng>
<geonameId>1884403</geonameId>
<countryCode>SG</countryCode>
<countryName>Singapore</countryName>
<fcl>P</fcl>
<fcode>PPLX</fcode>
</geoname>
<geoname>
<toponymName>Delta Road</toponymName>
<name>Delta Road</name>
<lat>1.29176</lat>
<lng>103.82594</lng>
<geonameId>7289770</geonameId>
<countryCode>SG</countryCode>
<countryName>Singapore</countryName>
<fcl>P</fcl>
<fcode>PPLX</fcode>
</geoname>
<geoname>
<toponymName>Lower Delta Road</toponymName>
<name>Lower Delta Road</name>
<lat>1.28126</lat>
<lng>103.8238</lng>
<geonameId>7289774</geonameId>
<countryCode>SG</countryCode>
<countryName>Singapore</countryName>
<fcl>P</fcl>
<fcode>PPLX</fcode>
</geoname>
<geoname>
<toponymName>Kampung Singapura</toponymName>
<name>Kampung Singapura</name>
<lat>1.9181</lat>
<lng>104.0803</lng>
<geonameId>7578663</geonameId>
<countryCode>MY</countryCode>
<countryName>Malaysia</countryName>
<fcl>P</fcl>
<fcode>PPL</fcode>
</geoname>
<geoname>
<toponymName>Yio Chu Kang</toponymName>
<name>Yio Chu Kang</name>
<lat>1.39111</lat>
<lng>103.85139</lng>
<geonameId>1880135</geonameId>
<countryCode>SG</countryCode>
<countryName>Singapore</countryName>
<fcl>P</fcl>
<fcode>PPL</fcode>
</geoname>
<geoname>
