<?xml version="1.0" encoding="UTF-8" standalone="no"?>
<geonames style="MEDIUM">
<totalResultsCount>50370</totalResultsCount>
<geoname>
<toponymName>Union of Burma</toponymName>
<name>Myanmar [Burma]</name>
<lat>21</lat>
<lng>96</lng>
<geonameId>1327865</geonameId>
<countryCode>MM</countryCode>
<countryName>Myanmar [Burma]</countryName>
<fcl>A</fcl>
<fcode>PCLI</fcode>
</geoname>
<geoname>
<toponymName>Bago</toponymName>
<name>Bago</name>
<lat>17.33521</lat>
<lng>96.48135</lng>
<geonameId>1300466</geonameId>
<countryCode>MM</countryCode>
<countryName>Myanmar [Burma]</countryName>
<fcl>P</fcl>
<fcode>PPLA</fcode>
</geoname>
<geoname>
<toponymName>Nay Pyi Taw</toponymName>
<name>Nay Pyi Taw</name>
<lat>19.745</lat>
<lng>96.12972</lng>
<geonameId>6611854</geonameId>
<countryCode>MM</countryCode>
<countryName>Myanmar [Burma]</countryName>
<fcl>P</fcl>
<fcode>PPLC</fcode>
</geoname>
<geoname>
<toponymName>Mandalay</toponymName>
<name>Mandalay</name>
<lat>21.97473</lat>
<lng>96.08359</lng>
<geonameId>1311874</geonameId>
<countryCode>MM</countryCode>
<countryName>Myanmar [Burma]</countryName>
<fcl>P</fcl>
<fcode>PPLA</fcode>
</geoname>
<geoname>
<toponymName>Mawlamyine</toponymName>
<name>Mawlamyine</name>
<lat>16.49051</lat>
<lng>97.62825</lng>
<geonameId>1308465</geonameId>
<countryCode>MM</countryCode>
<countryName>Myanmar [Burma]</countryName>
<fcl>P</fcl>
<fcode>PPLA</fcode>
</geoname>
<geoname>
<toponymName>Monywa</toponymName>
<name>Monywa</name>
<lat>22.10856</lat>
<lng>95.13583</lng>
<geonameId>1308522</geonameId>
<countryCode>MM</countryCode>
<countryName>Myanmar [Burma]</countryName>
<fcl>P</fcl>
<fcode>PPL</fcode>
</geoname>
<geoname>
<toponymName>Pathein</toponymName>
<name>Pathein</name>
<lat>16.77919</lat>
<lng>94.73212</lng>
<geonameId>1328421</geonameId>
<countryCode>MM</countryCode>
<countryName>Myanmar [Burma]</countryName>
<fcl>P</fcl>
<fcode>PPLA</fcode>
</geoname>
<geoname>
<toponymName>Yangon</toponymName>
<name>Yangon</name>
<lat>16.80528</lat>
<lng>96.15611</lng>
<geonameId>1298824</geonameId>
<countryCode>MM</countryCode>
<countryName>Myanmar [Burma]</countryName>
<fcl>P</fcl>
<fcode>PPLA</fcode>
</geoname>
<geoname>
<toponymName>Myeik</toponymName>
<name>Myeik</name>
<lat>12.43954</lat>
<lng>98.60028</lng>
<geonameId>1309611</geonameId>
<countryCode>MM</countryCode>
<countryName>Myanmar [Burma]</countryName>
<fcl>P</fcl>
<fcode>PPL</fcode>
</geoname>
<geoname>
<toponymName>Meiktila</toponymName>
<name>Meiktila</name>
<lat>20.87776</lat>
<lng>95.85844</lng>
<geonameId>1309793</geonameId>
<countryCode>MM</countryCode>
<countryName>Myanmar [Burma]</countryName>
<fcl>P</fcl>
<fcode>PPL</fcode>
</geoname>
<geoname>
<toponymName>Kachin State</toponymName>
<name>Kachin State</name>
<lat>26</lat>
<lng>97.5</lng>
<geonameId>1321702</geonameId>
<countryCode>MM</countryCode>
<countryName>Myanmar [Burma]</countryName>
<fcl>A</fcl>
<fcode>ADM1</fcode>
</geoname>
<geoname>
<toponymName>Sittwe</toponymName>
<name>Sittwe</name>
<lat>20.14624</lat>
<lng>92.89835</lng>
<geonameId>1295765</geonameId>
<countryCode>MM</countryCode>
<countryName>Myanmar [Burma]</countryName>
<fcl>P</fcl>
<fcode>PPLA</fcode>
</geoname>
<geoname>
<toponymName>Shan State</toponymName>
<name>Shan State</name>
<lat>22</lat>
<lng>98</lng>
<geonameId>1297099</geonameId>
<countryCode>MM</countryCode>
<countryName>Myanmar [Burma]</countryName>
<fcl>A</fcl>
<fcode>ADM1</fcode>
</geoname>
<geoname>
<toponymName>Birma</toponymName>
<name>Birma</name>
<lat>51.4241</lat>
<lng>128.70421</lng>
<geonameId>2026645</geonameId>
<countryCode>RU</countryCode>
<countryName>Russia</countryName>
<fcl>P</fcl>
<fcode>PPL</fcode>
</geoname>
<geoname>
<toponymName>Novaya Burma</toponymName>
<name>Novaya Burma</name>
<lat>56.1569</lat>
<lng>56.67574</lng>
<geonameId>519785</geonameId>
<countryCode>RU</countryCode>
<countryName>Russia</countryName>
<fcl>P</fcl>
<fcode>PPL</fcode>
</geoname>
<geoname>
<toponymName>Mandalay Region</toponymName>
<name>Mandalay Region</name>
<lat>21</lat>
<lng>96</lng>
<geonameId>1311871</geonameId>
<countryCode>MM</countryCode>
<countryName>Myanmar [Burma]</countryName>
<fcl>A</fcl>
<fcode>ADM1</fcode>
</geoname>
<geoname>
<toponymName>Magway Region</toponymName>
<name>Magway Region</name>
<lat>20.5</lat>
<lng>94.75</lng>
<geonameId>1312604</geonameId>
<countryCode>MM</countryCode>
<countryName>Myanmar [Burma]</countryName>
<fcl>A</fcl>
<fcode>ADM1</fcode>
</geoname>
<geoname>
<toponymName>Mon State</toponymName>
<name>Mon State</name>
<lat>16.25</lat>
<lng>97.75</lng>
<geonameId>1308528</geonameId>
<countryCode>MM</countryCode>
<countryName>Myanmar [Burma]</countryName>
<fcl>A</fcl>
<fcode>ADM1</fcode>
</geoname>
<geoname>
<toponymName>Bumhpa Bum</toponymName>
<name>Bumhpa Bum</name>
<lat>26.67852</lat>
<lng>97.23862</lng>
<geonameId>1327900</geonameId>
<countryCode>MM</countryCode>
<countryName>Myanmar [Burma]</countryName>
<fcl>T</fcl>
<fcode>MT</fcode>
</geoname>
<geoname>
<toponymName>Sagaing Region</toponymName>
<name>Sagaing Region</name>
<lat>23.5</lat>
<lng>95.5</lng>
<geonameId>1298480</geonameId>
<countryCode>MM</countryCode>
<countryName>Myanmar [Burma]</countryName>
<fcl>A</fcl>
<fcode>ADM1</fcode>
</geoname>
<geoname>
<toponymName>Yangon Region</toponymName>
<name>Yangon Region</name>
<lat>17</lat>
<lng>96.16667</lng>
<geonameId>1298822</geonameId>
<countryCode>MM</countryCode>
<countryName>Myanmar [Burma]</countryName>
<fcl>A</fcl>
<fcode>ADM1</fcode>
</geoname>
<geoname>
<toponymName>Bago Region</toponymName>
<name>Bago Region</name>
<lat>18.25</lat>
<lng>96.25</lng>
<geonameId>1300463</geonameId>
<countryCode>MM</countryCode>
<countryName>Myanmar [Burma]</countryName>
<fcl>A</fcl>
<fcode>ADM1</fcode>
</geoname>
<geoname>
<toponymName>Taninthayi Region</toponymName>
<name>Taninthayi Region</name>
<lat>13</lat>
<lng>99</lng>
<geonameId>1293118</geonameId>
<countryCode>MM</countryCode>
<countryName>Myanmar [Burma]</countryName>
<fcl>A</fcl>
<fcode>ADM1</fcode>
</geoname>
<geoname>
<toponymName>Nay Pyi Taw</toponymName>
<name>Nay Pyi Taw</name>
<lat>19.8822</lat>
<lng>96.14182</lng>
<geonameId>8239588</geonameId>
<countryCode>MM</countryCode>
<countryName>Myanmar [Burma]</countryName>
<fcl>A</fcl>
<fcode>ADM1</fcode>
</geoname>
<geoname>
<toponymName>Magway</toponymName>
<name>Magway</name>
<lat>20.14956</lat>
<lng>94.93246</lng>
<geonameId>1312609</geonameId>
<countryCode>MM</countryCode>
<countryName>Myanmar [Burma]</countryName>
<fcl>P</fcl>
<fcode>PPLA</fcode>
</geoname>
<geoname>
<toponymName>Loi Leng</toponymName>
<name>Loi Leng</name>
<lat>22.65</lat>
<lng>98.08333</lng>
<geonameId>1314183</geonameId>
<countryCode>MM</countryCode>
<countryName>Myanmar [Burma]</countryName>
<fcl>T</fcl>
<fcode>MT</fcode>
</geoname>
<geoname>
<toponymName>Lashio</toponymName>
<name>Lashio</name>
<lat>22.9359</lat>
<lng>97.7498</lng>
<geonameId>1314759</geonameId>
<countryCode>MM</countryCode>
<countryName>Myanmar [Burma]</countryName>
<fcl>P</fcl>
<fcode>PPL</fcode>
</geoname>
<geoname>
<toponymName>Myitkyina</toponymName>
<name>Myitkyina</name>
<lat>25.38327</lat>
<lng>97.39637</lng>
<geonameId>1307741</geonameId>
<countryCode>MM</countryCode>
<countryName>Myanmar [Burma]</countryName>
<fcl>P</fcl>
<fcode>PPLA</fcode>
</geoname>
<geoname>
<toponymName>Myingyan</toponymName>
<name>Myingyan</name>
<lat>21.46002</lat>
<lng>95.3884</lng>
<geonameId>1307835</geonameId>
<countryCode>MM</countryCode>
<countryName>Myanmar [Burma]</countryName>
<fcl>P</fcl>
<fcode>PPL</fcode>
</geoname>
<geoname>
<toponymName>Kennedy Peak</toponymName>
<name>Kennedy Peak</name>
<lat>23.3178</lat>
<lng>93.7625</lng>
<geonameId>1319362</geonameId>
<countryCode>MM</countryCode>
<countryName>Myanmar [Burma]</countryName>
<fcl>T</fcl>
<fcode>MT</fcode>
</geoname>
<geoname>
<toponymName>Kayah State</toponymName>
<name>Kayah State</name>
<lat>19.25</lat>
<lng>97.5</lng>
<geonameId>1319539</geonameId>
<countryCode>MM</countryCode>
<countryName>Myanmar [Burma]</countryName>
<fcl>A</fcl>
<fcode>ADM1</fcode>
</geoname>
<geoname>
<toponymName>Kayin State</toponymName>
<name>Kayin State</name>
<lat>17.5</lat>
<lng>97.75</lng>
<geonameId>1320233</geonameId>
<countryCode>MM</countryCode>
<countryName>Myanmar [Burma]</countryName>
<fcl>A</fcl>
<fcode>ADM1</fcode>
</geoname>
<geoname>
<toponymName>Ayeyawady Region</toponymName>
<name>Ayeyawady Region</name>
<lat>17</lat>
<lng>95</lng>
<geonameId>1321850</geonameId>
<countryCode>MM</countryCode>
<countryName>Myanmar [Burma]</countryName>
<fcl>A</fcl>
<fcode>ADM1</fcode>
</geoname>
<geoname>
<toponymName>Hkakabo Razi</toponymName>
<name>Hkakabo Razi</name>
<lat>28.33219</lat>
<lng>97.53353</lng>
<geonameId>1325010</geonameId>
<countryCode>MM</countryCode>
<countryName>Myanmar [Burma]</countryName>
<fcl>T</fcl>
<fcode>MT</fcode>
</geoname>
<geoname>
<toponymName>Chin State</toponymName>
<name>Chin State</name>
<lat>22</lat>
<lng>93.5</lng>
<geonameId>1327132</geonameId>
<countryCode>MM</countryCode>
<countryName>Myanmar [Burma]</countryName>
<fcl>A</fcl>
<fcode>ADM1</fcode>
</geoname>
<geoname>
<toponymName>Yenangyaung</toponymName>
<name>Yenangyaung</name>
<lat>20.46504</lat>
<lng>94.8712</lng>
<geonameId>1285173</geonameId>
<countryCode>MM</countryCode>
<countryName>Myanmar [Burma]</countryName>
<fcl>P</fcl>
<fcode>PPL</fcode>
</geoname>
<geoname>
<toponymName>Taungoo</toponymName>
<name>Taungoo</name>
<lat>18.94291</lat>
<lng>96.43408</lng>
<geonameId>1290596</geonameId>
<countryCode>MM</countryCode>
<countryName>Myanmar [Burma]</countryName>
<fcl>P</fcl>
<fcode>PPL</fcode>
</geoname>
<geoname>
<toponymName>Sagaing</toponymName>
<name>Sagaing</name>
<lat>21.8787</lat>
<lng>95.97965</lng>
<geonameId>1298482</geonameId>
<countryCode>MM</countryCode>
<countryName>Myanmar [Burma]</countryName>
<fcl>P</fcl>
<fcode>PPLA</fcode>
</geoname>
<geoname>
<toponymName>Rakhine State</toponymName>
<name>Rakhine State</name>
<lat>19</lat>
<lng>94.25</lng>
<geonameId>1298852</geonameId>
<countryCode>MM</countryCode>
<countryName>Myanmar [Burma]</countryName>
<fcl>A</fcl>
<fcode>ADM1</fcode>
</geoname>
<geoname>
<toponymName>Pyay</toponymName>
<name>Prome</name>
<lat>18.82464</lat>
<lng>95.22216</lng>
<geonameId>1299154</geonameId>
<countryCode>MM</countryCode>
<countryName>Myanmar [Burma]</countryName>
<fcl>P</fcl>
<fcode>PPL</fcode>
</geoname>
<geoname>
<toponymName>Pakokku</toponymName>
<name>Pakokku</name>
<lat>21.33489</lat>
<lng>95.08438</lng>
<geonameId>1302439</geonameId>
<countryCode>MM</countryCode>
<countryName>Myanmar [Burma]</countryName>
<fcl>P</fcl>
<fcode>PPL</fcode>
</geoname>
<geoname>
<toponymName>Thaton</toponymName>
<name>Thaton</name>
<lat>16.91867</lat>
<lng>97.37001</lng>
<geonameId>1292288</geonameId>
<countryCode>MM</countryCode>
<countryName>Myanmar [Burma]</countryName>
<fcl>P</fcl>
<fcode>PPL</fcode>
</geoname>
<geoname>
<toponymName>Dawei</toponymName>
<name>Dawei</name>
<lat>14.0823</lat>
<lng>98.19151</lng>
<geonameId>1293625</geonameId>
<countryCode>MM</countryCode>
<countryName>Myanmar [Burma]</countryName>
<fcl>P</fcl>
<fcode>PPLA</fcode>
</geoname>
<geoname>
<toponymName>Taunggyi</toponymName>
<name>Taunggyi</name>
<lat>20.78919</lat>
<lng>97.03776</lng>
<geonameId>1293960</geonameId>
<countryCode>MM</countryCode>
<countryName>Myanmar [Burma]</countryName>
<fcl>P</fcl>
<fcode>PPLA</fcode>
</geoname>
<geoname>
<toponymName>Yangon South District</toponymName>
<name>Yangon South District</name>
<lat>16.74051</lat>
<lng>96.49989</lng>
<geonameId>8239356</geonameId>
<countryCode>MM</countryCode>
<countryName>Myanmar [Burma]</countryName>
<fcl>A</fcl>
<fcode>ADM2</fcode>
</geoname>
<geoname>
<toponymName>Qaḑā’ Burmā</toponymName>
<name>Qaḑā’ Burmā</name>
<lat>32.2148</lat>
<lng>35.77892</lng>
<geonameId>8623814</geonameId>
<countryCode>JO</countryCode>
<countryName>Jordan</countryName>
<fcl>A</fcl>
<fcode>ADM3</fcode>
</geoname>
<geoname>
<toponymName>Burma Road Nature Reserve</toponymName>
<name>Burma Road Nature Reserve</name>
<lat>-28.94792</lat>
<lng>115.0928</lng>
<geonameId>8151811</geonameId>
<countryCode>AU</countryCode>
<countryName>Australia</countryName>
<fcl>L</fcl>
<fcode>RES</fcode>
</geoname>
<geoname>
<toponymName>Burma</toponymName>
<name>Burma</name>
<lat>6.4738</lat>
<lng>-57.75908</lng>
<geonameId>8310306</geonameId>
<countryCode>GY</countryCode>
<countryName>Guyana</countryName>
<fcl>P</fcl>
<fcode>PPL</fcode>
</geoname>
<geoname>
<toponymName>Kyaukse</toponymName>
<name>Kyaukse</name>
<lat>21.6056</lat>
<lng>96.13508</lng>
<geonameId>1316703</geonameId>
<countryCode>MM</countryCode>
<countryName>Myanmar [Burma]</countryName>
<fcl>P</fcl>
<fcode>PPL</fcode>
</geoname>
<geoname>
<toponymName>Nattaung</toponymName>
<name>Nattaung</name>
<lat>18.81097</lat>
<lng>97.03766</lng>
<geonameId>1305688</geonameId>
<countryCode>MM</countryCode>
<countryName>Myanmar [Burma]</countryName>
<fcl>T</fcl>
<fcode>MT</fcode>
</geoname>
<geoname>
<toponymName>Myitkyinā District</toponymName>
<name>Myitkyinā District</name>
<lat>25.78552</lat>
<lng>97.14527</lng>
<geonameId>1307740</geonameId>
<countryCode>MM</countryCode>
<countryName>Myanmar [Burma]</countryName>
<fcl>A</fcl>
<fcode>ADM2</fcode>
</geoname>
<geoname>
<toponymName>Mudon</toponymName>
<name>Mudon</name>
<lat>16.25624</lat>
<lng>97.7246</lng>
<geonameId>1308415</geonameId>
<countryCode>MM</countryCode>
<countryName>Myanmar [Burma]</countryName>
<fcl>P</fcl>
<fcode>PPL</fcode>
</geoname>
<geoname>
<toponymName>Möng Ling Shan</toponymName>
<name>Möng Ling Shan</name>
<lat>23.35653</lat>
<lng>98.90217</lng>
<geonameId>1308668</geonameId>
<countryCode>MM</countryCode>
<countryName>Myanmar [Burma]</countryName>
<fcl>T</fcl>
<fcode>MT</fcode>
</geoname>
<geoname>
<toponymName>Mogok</toponymName>
<name>Mogok</name>
<lat>22.91766</lat>
<lng>96.50982</lng>
<geonameId>1308937</geonameId>
<countryCode>MM</countryCode>
<countryName>Myanmar [Burma]</countryName>
<fcl>P</fcl>
<fcode>PPL</fcode>
</geoname>
<geoname>
<toponymName>Pyin Oo Lwin</toponymName>
<name>Pyn U Lwin</name>
<lat>22.03501</lat>
<lng>96.45683</lng>
<geonameId>1309937</geonameId>
<countryCode>MM</countryCode>
<countryName>Myanmar [Burma]</countryName>
<fcl>P</fcl>
<fcode>PPL</fcode>
</geoname>
<geoname>
<toponymName>Katha District</toponymName>
<name>Katha District</name>
<lat>24.11362</lat>
<lng>95.84976</lng>
<geonameId>1320151</geonameId>
<countryCode>MM</countryCode>
<countryName>Myanmar [Burma]</countryName>
<fcl>A</fcl>
<fcode>ADM2</fcode>
</geoname>
<geoname>
<toponymName>Hinthada</toponymName>
<name>Hinthada</name>
<lat>17.64944</lat>
<lng>95.45705</lng>
<geonameId>1325211</geonameId>
<countryCode>MM</countryCode>
<countryName>Myanmar [Burma]</countryName>
<fcl>P</fcl>
<fcode>PPL</fcode>
</geoname>
<geoname>
<toponymName>Chauk</toponymName>
<name>Chauk</name>
<lat>20.89921</lat>
<lng>94.81784</lng>
<geonameId>1327659</geonameId>
<countryCode>MM</countryCode>
<countryName>Myanmar [Burma]</countryName>
<fcl>P</fcl>
<fcode>PPL</fcode>
</geoname>
<geoname>
<toponymName>Bogale</toponymName>
<name>Bogale</name>
<lat>16.29415</lat>
<lng>95.39742</lng>
<geonameId>1328121</geonameId>
<countryCode>MM</countryCode>
<countryName>Myanmar [Burma]</countryName>
<fcl>P</fcl>
<fcode>PPL</fcode>
</geoname>
<geoname>
<toponymName>Myaydo</toponymName>
<name>Myaydo</name>
<lat>19.36838</lat>
<lng>95.21512</lng>
<geonameId>1329239</geonameId>
<countryCode>MM</countryCode>
<countryName>Myanmar [Burma]</countryName>
<fcl>P</fcl>
<fcode>PPL</fcode>
</geoname>
<geoname>
<toponymName>Yamethin</toponymName>
<name>Yamethin</name>
<lat>20.43189</lat>
<lng>96.13875</lng>
<geonameId>1285899</geonameId>
<countryCode>MM</countryCode>
<countryName>Myanmar [Burma]</countryName>
<fcl>P</fcl>
<fcode>PPL</fcode>
</geoname>
<geoname>
<toponymName>Pyinmana</toponymName>
<name>Pyinmana</name>
<lat>19.7381</lat>
<lng>96.20742</lng>
<geonameId>1298987</geonameId>
<countryCode>MM</countryCode>
<countryName>Myanmar [Burma]</countryName>
<fcl>P</fcl>
<fcode>PPL</fcode>
</geoname>
<geoname>
<toponymName>Thayetmyo</toponymName>
<name>Thayetmyo</name>
<lat>19.32076</lat>
<lng>95.18272</lng>
<geonameId>1292037</geonameId>
<countryCode>MM</countryCode>
<countryName>Myanmar [Burma]</countryName>
<fcl>P</fcl>
<fcode>PPL</fcode>
</geoname>
<geoname>
<toponymName>Tharyarwady</toponymName>
<name>Tharyarwady</name>
<lat>17.65399</lat>
<lng>95.78813</lng>
<geonameId>1292313</geonameId>
<countryCode>MM</countryCode>
<countryName>Myanmar [Burma]</countryName>
<fcl>P</fcl>
<fcode>PPL</fcode>
</geoname>
<geoname>
<toponymName>Taungdwingyi</toponymName>
<name>Taungdwingyi</name>
<lat>20.0065</lat>
<lng>95.54531</lng>
<geonameId>1294041</geonameId>
<countryCode>MM</countryCode>
<countryName>Myanmar [Burma]</countryName>
<fcl>P</fcl>
<fcode>PPL</fcode>
</geoname>
<geoname>
<toponymName>Tachilek</toponymName>
<name>Tachilek</name>
<lat>20.4475</lat>
<lng>99.88083</lng>
<geonameId>1295301</geonameId>
<countryCode>MM</countryCode>
<countryName>Myanmar [Burma]</countryName>
<fcl>P</fcl>
<fcode>PPL</fcode>
</geoname>
<geoname>
<toponymName>Shwebo District</toponymName>
<name>Shwebo District</name>
<lat>23.00712</lat>
<lng>95.44818</lng>
<geonameId>1296732</geonameId>
<countryCode>MM</countryCode>
<countryName>Myanmar [Burma]</countryName>
<fcl>A</fcl>
<fcode>ADM2</fcode>
</geoname>
<geoname>
<toponymName>Shwebo</toponymName>
<name>Shwebo</name>
<lat>22.56925</lat>
<lng>95.69818</lng>
<geonameId>1296736</geonameId>
<countryCode>MM</countryCode>
<countryName>Myanmar [Burma]</countryName>
<fcl>P</fcl>
<fcode>PPL</fcode>
</geoname>
<geoname>
<toponymName>Pokrov-Pema</toponymName>
<name>Pokrov-Pema</name>
<lat>58.4623</lat>
<lng>42.4724</lng>
<geonameId>7460527</geonameId>
<countryCode>RU</countryCode>
<countryName>Russia</countryName>
<fcl>P</fcl>
<fcode>PPL</fcode>
</geoname>
<geoname>
<toponymName>Lashio Airport</toponymName>
<name>Lashio Airport</name>
<lat>22.97831</lat>
<lng>97.7524</lng>
<geonameId>6301051</geonameId>
<countryCode>MM</countryCode>
<countryName>Myanmar [Burma]</countryName>
<fcl>S</fcl>
<fcode>AIRP</fcode>
</geoname>
<geoname>
<toponymName>Mawlamyine Airport</toponymName>
<name>Mawlamyine Airport</name>
<lat>16.44166</lat>
<lng>97.65766</lng>
<geonameId>7910380</geonameId>
<countryCode>MM</countryCode>
<countryName>Myanmar [Burma]</countryName>
<fcl>S</fcl>
<fcode>AIRP</fcode>
</geoname>
<geoname>
<toponymName>Kengtung Airport</toponymName>
<name>Kengtung Airport</name>
<lat>21.30348</lat>
<lng>99.6308</lng>
<geonameId>7910381</geonameId>
<countryCode>MM</countryCode>
<countryName>Myanmar [Burma]</countryName>
<fcl>S</fcl>
<fcode>AIRP</fcode>
</geoname>
<geoname>
<toponymName>Heho Airport</toponymName>
<name>Heho Airport</name>
<lat>20.747</lat>
<lng>96.792</lng>
<geonameId>7668655</geonameId>
<countryCode>MM</countryCode>
<countryName>Myanmar [Burma]</countryName>
<fcl>S</fcl>
<fcode>AIRP</fcode>
</geoname>
<geoname>
<toponymName>Kalay Airport</toponymName>
<name>Kalay Airport</name>
<lat>23.1888</lat>
<lng>94.0511</lng>
<geonameId>7668657</geonameId>
<countryCode>MM</countryCode>
<countryName>Myanmar [Burma]</countryName>
<fcl>S</fcl>
<fcode>AIRP</fcode>
</geoname>
<geoname>
<toponymName>Loikaw Airport</toponymName>
<name>Loikaw Airport</name>
<lat>19.6915</lat>
<lng>97.2148</lng>
<geonameId>7668659</geonameId>
<countryCode>MM</countryCode>
<countryName>Myanmar [Burma]</countryName>
<fcl>S</fcl>
<fcode>AIRP</fcode>
</geoname>
<geoname>
<toponymName>Myeik Airport</toponymName>
<name>Myeik Airport</name>
<lat>12.4398</lat>
<lng>98.6215</lng>
<geonameId>7668660</geonameId>
<countryCode>MM</countryCode>
<countryName>Myanmar [Burma]</countryName>
<fcl>S</fcl>
<fcode>AIRP</fcode>
</geoname>
<geoname>
<toponymName>Mong Hsat Airport</toponymName>
<name>Mong Hsat Airport</name>
<lat>20.5168</lat>
<lng>99.2568</lng>
<geonameId>7668661</geonameId>
<countryCode>MM</countryCode>
<countryName>Myanmar [Burma]</countryName>
<fcl>S</fcl>
<fcode>AIRP</fcode>
</geoname>
<geoname>
<toponymName>Pathein Airport</toponymName>
<name>Pathein Airport</name>
<lat>16.8152</lat>
<lng>94.7799</lng>
<geonameId>7668662</geonameId>
<countryCode>MM</countryCode>
<countryName>Myanmar [Burma]</countryName>
<fcl>S</fcl>
<fcode>AIRP</fcode>
</geoname>
<geoname>
<toponymName>Tachileik Airport</toponymName>
<name>Tachileik Airport</name>
<lat>20.4838</lat>
<lng>99.9354</lng>
<geonameId>7668663</geonameId>
<countryCode>MM</countryCode>
<countryName>Myanmar [Burma]</countryName>
<fcl>S</fcl>
<fcode>AIRP</fcode>
</geoname>
<geoname>
<toponymName>Magway Airport</toponymName>
<name>Magway Airport</name>
<lat>20.1656</lat>
<lng>94.9414</lng>
<geonameId>7731309</geonameId>
<countryCode>MM</countryCode>
<countryName>Myanmar [Burma]</countryName>
<fcl>S</fcl>
<fcode>AIRP</fcode>
</geoname>
<geoname>
<toponymName>Pauk Airport</toponymName>
<name>Pauk Airport</name>
<lat>21.4492</lat>
<lng>94.4869</lng>
<geonameId>7731381</geonameId>
<countryCode>MM</countryCode>
<countryName>Myanmar [Burma]</countryName>
<fcl>S</fcl>
<fcode>AIRP</fcode>
</geoname>
<geoname>
<toponymName>Putao District</toponymName>
<name>Putao District</name>
<lat>27.26892</lat>
<lng>97.78238</lng>
<geonameId>8238707</geonameId>
<countryCode>MM</countryCode>
<countryName>Myanmar [Burma]</countryName>
<fcl>A</fcl>
<fcode>ADM2</fcode>
</geoname>
<geoname>
<toponymName>Mohnyin District</toponymName>
<name>Mohnyin District</name>
<lat>25.19508</lat>
<lng>96.59766</lng>
<geonameId>8238708</geonameId>
<countryCode>MM</countryCode>
<countryName>Myanmar [Burma]</countryName>
<fcl>A</fcl>
<fcode>ADM2</fcode>
</geoname>
<geoname>
<toponymName>Taunggyi District</toponymName>
<name>Taunggyi District</name>
<lat>20.49485</lat>
<lng>96.93972</lng>
<geonameId>8238751</geonameId>
<countryCode>MM</countryCode>
<countryName>Myanmar [Burma]</countryName>
<fcl>A</fcl>
<fcode>ADM2</fcode>
</geoname>
<geoname>
<toponymName>Langhko District</toponymName>
<name>Langhko District</name>
<lat>20.23979</lat>
<lng>97.99691</lng>
<geonameId>8238777</geonameId>
<countryCode>MM</countryCode>
<countryName>Myanmar [Burma]</countryName>
<fcl>A</fcl>
<fcode>ADM2</fcode>
</geoname>
<geoname>
<toponymName>Kawthaung District</toponymName>
<name>Kawthaung District</name>
<lat>11.04972</lat>
<lng>98.84735</lng>
<geonameId>8238821</geonameId>
<countryCode>MM</countryCode>
<countryName>Myanmar [Burma]</countryName>
<fcl>A</fcl>
<fcode>ADM2</fcode>
</geoname>
<geoname>
<toponymName>Bhamo Airport</toponymName>
<name>Bhamo Airport</name>
<lat>24.26833</lat>
<lng>97.24874</lng>
<geonameId>8260784</geonameId>
<countryCode>MM</countryCode>
<countryName>Myanmar [Burma]</countryName>
<fcl>S</fcl>
<fcode>AIRP</fcode>
</geoname>
<geoname>
<toponymName>Naypyidaw Airport</toponymName>
<name>Nay Pyi Taw International Airport</name>
<lat>19.6225</lat>
<lng>96.2014</lng>
<geonameId>8260875</geonameId>
<countryCode>MM</countryCode>
<countryName>Myanmar [Burma]</countryName>
<fcl>S</fcl>
<fcode>AIRP</fcode>
</geoname>
<geoname>
<toponymName>Hopang</toponymName>
<name>Hopang</name>
<lat>23.02599</lat>
<lng>98.96849</lng>
<geonameId>11154013</geonameId>
<countryCode>MM</countryCode>
<countryName>Myanmar [Burma]</countryName>
<fcl>A</fcl>
<fcode>ADM2</fcode>
</geoname>
<geoname>
<toponymName>Falam</toponymName>
<name>Falam</name>
<lat>23.42199</lat>
<lng>93.71488</lng>
<geonameId>11154014</geonameId>
<countryCode>MM</countryCode>
<countryName>Myanmar [Burma]</countryName>
<fcl>A</fcl>
<fcode>ADM2</fcode>
</geoname>
<geoname>
<toponymName>Hakha</toponymName>
<name>Hakha</name>
<lat>22.51244</lat>
<lng>93.56355</lng>
<geonameId>11154015</geonameId>
<countryCode>MM</countryCode>
<countryName>Myanmar [Burma]</countryName>
<fcl>A</fcl>
<fcode>ADM2</fcode>
</geoname>
<geoname>
<toponymName>Mindat</toponymName>
<name>Mindat</name>
<lat>21.48455</lat>
<lng>93.39837</lng>
<geonameId>11154016</geonameId>
<countryCode>MM</countryCode>
<countryName>Myanmar [Burma]</countryName>
<fcl>A</fcl>
<fcode>ADM2</fcode>
</geoname>
<geoname>
<toponymName>Yinmabin</toponymName>
<name>Yinmabin</name>
<lat>22.24864</lat>
<lng>94.71565</lng>
<geonameId>11154024</geonameId>
<countryCode>MM</countryCode>
<countryName>Myanmar [Burma]</countryName>
<fcl>A</fcl>
<fcode>ADM2</fcode>
</geoname>
<geoname>
<toponymName>Laukkaing</toponymName>
<name>Laukkaing</name>
<lat>23.83377</lat>
<lng>98.654</lng>
<geonameId>11154025</geonameId>
<countryCode>MM</countryCode>
<countryName>Myanmar [Burma]</countryName>
<fcl>A</fcl>
<fcode>ADM2</fcode>
</geoname>
<geoname>
<toponymName>Matman</toponymName>
<name>Matman</name>
<lat>22.26535</lat>
<lng>98.89604</lng>
<geonameId>11154026</geonameId>
<countryCode>MM</countryCode>
<countryName>Myanmar [Burma]</countryName>
<fcl>A</fcl>
<fcode>ADM2</fcode>
</geoname>
<geoname>
<toponymName>Mongmit</toponymName>
<name>Mongmit</name>
<lat>23.45728</lat>
<lng>96.66043</lng>
<geonameId>11154027</geonameId>
<countryCode>MM</countryCode>
<countryName>Myanmar [Burma]</countryName>
<fcl>A</fcl>
<fcode>ADM2</fcode>
</geoname>
<geoname>
<toponymName>Burma</toponymName>
<name>Burma</name>
<lat>48.93694</lat>
<lng>72.83517</lng>
<geonameId>1524968</geonameId>
<countryCode>KZ</countryCode>
<countryName>Kazakhstan</countryName>
<fcl>P</fcl>
<fcode>PPL</fcode>
</geoname>
<geoname>
<toponymName>Tall Burmā</toponymName>
<name>Tall Burmā</name>
<lat>30.62258</lat>
<lng>35.83984</lng>
<geonameId>249848</geonameId>
<countryCode>JO</countryCode>
<countryName>Jordan</countryName>
<fcl>T</fcl>
<fcode>HLL</fcode>
</geoname>
<geoname>
<toponymName>Burmā</toponymName>
<name>Burmā</name>
<lat>32.2193</lat>
<lng>35.78507</lng>
<geonameId>249849</geonameId>
<countryCode>JO</countryCode>
<countryName>Jordan</countryName>
<fcl>P</fcl>
<fcode>PPLA3</fcode>
</geoname>
<geoname>
<toponymName>Ḩişşat Birmā</toponymName>
<name>Ḩişşat Birmā</name>
<lat>30.847</lat>
<lng>30.909</lng>
<geonameId>355861</geonameId>
<countryCode>EG</countryCode>
<countryName>Egypt</countryName>
<fcl>P</fcl>
<fcode>PPL</fcode>
</geoname>
<geoname>
<toponymName>Loi Pangnao</toponymName>
<name>Loi Pangnao</name>
<lat>21.2931</lat>
<lng>100.31906</lng>
<geonameId>1847763</geonameId>
<countryCode>MM</countryCode>
<countryName>Myanmar [Burma]</countryName>
<fcl>T</fcl>
<fcode>MT</fcode>
</geoname>
<geoname>
<toponymName>Martaban</toponymName>
<name>Martaban</name>
<lat>16.52834</lat>
<lng>97.6157</lng>
<geonameId>1310460</geonameId>
<countryCode>MM</countryCode>
<countryName>Myanmar [Burma]</countryName>
<fcl>P</fcl>
<fcode>PPL</fcode>
</geoname>
<geoname>
<toponymName>Mandalay District</toponymName>
<name>Mandalay District</name>
<lat>21.94941</lat>
<lng>96.1235</lng>
<geonameId>1311872</geonameId>
<countryCode>MM</countryCode>
<countryName>Myanmar [Burma]</countryName>
<fcl>A</fcl>
<fcode>ADM2</fcode>
</geoname>
<geoname>
<toponymName>Mandalay International Airport</toponymName>
<name>Mandalay International Airport</name>
<lat>21.69061</lat>
<lng>95.97862</lng>
<geonameId>1311876</geonameId>
<countryCode>MM</countryCode>
<countryName>Myanmar [Burma]</countryName>
<fcl>S</fcl>
<fcode>AIRP</fcode>
</geoname>
<geoname>
<toponymName>Magway District</toponymName>
<name>Magway District</name>
<lat>20.25</lat>
<lng>95.25</lng>
<geonameId>1312605</geonameId>
<countryCode>MM</countryCode>
<countryName>Myanmar [Burma]</countryName>
<fcl>A</fcl>
<fcode>ADM2</fcode>
</geoname>
<geoname>
<toponymName>Loikaw</toponymName>
<name>Loikaw</name>
<lat>19.67798</lat>
<lng>97.20975</lng>
<geonameId>1313479</geonameId>
<countryCode>MM</countryCode>
<countryName>Myanmar [Burma]</countryName>
<fcl>P</fcl>
<fcode>PPLA</fcode>
</geoname>
<geoname>
<toponymName>Letpandan</toponymName>
<name>Letpandan</name>
<lat>17.78664</lat>
<lng>95.75076</lng>
<geonameId>1314042</geonameId>
<countryCode>MM</countryCode>
<countryName>Myanmar [Burma]</countryName>
<fcl>P</fcl>
<fcode>PPL</fcode>
</geoname>
<geoname>
<toponymName>Kyaukse District</toponymName>
<name>Kyaukse District</name>
<lat>21.60502</lat>
<lng>96.24675</lng>
<geonameId>1316697</geonameId>
<countryCode>MM</countryCode>
<countryName>Myanmar [Burma]</countryName>
<fcl>A</fcl>
<fcode>ADM2</fcode>
</geoname>
<geoname>
<toponymName>Kyaunkpyu District</toponymName>
<name>Kyaunkpyu District</name>
<lat>19.91773</lat>
<lng>94.03112</lng>
<geonameId>1316745</geonameId>
<countryCode>MM</countryCode>
<countryName>Myanmar [Burma]</countryName>
<fcl>A</fcl>
<fcode>ADM2</fcode>
</geoname>
<geoname>
<toponymName>Hkamti District</toponymName>
<name>Hkamti District</name>
<lat>25.42555</lat>
<lng>95.52721</lng>
<geonameId>1307521</geonameId>
<countryCode>MM</countryCode>
<countryName>Myanmar [Burma]</countryName>
<fcl>A</fcl>
<fcode>ADM2</fcode>
</geoname>
<geoname>
<toponymName>Myingyan District</toponymName>
<name>Myingyan District</name>
<lat>21.27763</lat>
<lng>95.48423</lng>
<geonameId>1307834</geonameId>
<countryCode>MM</countryCode>
<countryName>Myanmar [Burma]</countryName>
<fcl>A</fcl>
<fcode>ADM2</fcode>
</geoname>
<geoname>
<toponymName>Myaungmya District</toponymName>
<name>Myaungmya District</name>
<lat>16.63724</lat>
<lng>95.09575</lng>
<geonameId>1308077</geonameId>
<countryCode>MM</countryCode>
<countryName>Myanmar [Burma]</countryName>
<fcl>A</fcl>
<fcode>ADM2</fcode>
</geoname>
<geoname>
<toponymName>Myanaung</toponymName>
<name>Myanaung</name>
<lat>18.28651</lat>
<lng>95.32014</lng>
<geonameId>1308204</geonameId>
<countryCode>MM</countryCode>
<countryName>Myanmar [Burma]</countryName>
<fcl>P</fcl>
<fcode>PPL</fcode>
</geoname>
<geoname>
<toponymName>Mawlamyinegyunn</toponymName>
<name>Mawlamyinegyunn</name>
<lat>16.3772</lat>
<lng>95.26488</lng>
<geonameId>1308464</geonameId>
<countryCode>MM</countryCode>
<countryName>Myanmar [Burma]</countryName>
<fcl>P</fcl>
<fcode>PPL</fcode>
</geoname>
<geoname>
<toponymName>Minbu District</toponymName>
<name>Minbu District</name>
<lat>20.37964</lat>
<lng>94.49025</lng>
<geonameId>1309286</geonameId>
<countryCode>MM</countryCode>
<countryName>Myanmar [Burma]</countryName>
<fcl>A</fcl>
<fcode>ADM2</fcode>
</geoname>
<geoname>
<toponymName>Minbu</toponymName>
<name>Minbu</name>
<lat>20.18059</lat>
<lng>94.87595</lng>
<geonameId>1309289</geonameId>
<countryCode>MM</countryCode>
<countryName>Myanmar [Burma]</countryName>
<fcl>P</fcl>
<fcode>PPL</fcode>
</geoname>
<geoname>
<toponymName>Myeik District</toponymName>
<name>Myeik District</name>
<lat>12.42405</lat>
<lng>99.05346</lng>
<geonameId>1309609</geonameId>
<countryCode>MM</countryCode>
<countryName>Myanmar [Burma]</countryName>
<fcl>A</fcl>
<fcode>ADM2</fcode>
</geoname>
<geoname>
<toponymName>Meiktila Lake</toponymName>
<name>Meiktila Lake</name>
<lat>20.86586</lat>
<lng>95.85605</lng>
<geonameId>1309789</geonameId>
<countryCode>MM</countryCode>
<countryName>Myanmar [Burma]</countryName>
<fcl>H</fcl>
<fcode>LK</fcode>
</geoname>
<geoname>
<toponymName>Meiktila District</toponymName>
<name>Meiktila District</name>
<lat>20.95695</lat>
<lng>95.95621</lng>
<geonameId>1309790</geonameId>
<countryCode>MM</countryCode>
<countryName>Myanmar [Burma]</countryName>
<fcl>A</fcl>
<fcode>ADM2</fcode>
</geoname>
<geoname>
<toponymName>Mazin</toponymName>
<name>Mazin</name>
<lat>18.41667</lat>
<lng>94.3</lng>
<geonameId>1309903</geonameId>
<countryCode>MM</countryCode>
<countryName>Myanmar [Burma]</countryName>
<fcl>S</fcl>
<fcode>AIRP</fcode>
</geoname>
<geoname>
<toponymName>Maubin</toponymName>
<name>Maubin</name>
<lat>16.73148</lat>
<lng>95.65441</lng>
<geonameId>1310362</geonameId>
<countryCode>MM</countryCode>
<countryName>Myanmar [Burma]</countryName>
<fcl>P</fcl>
<fcode>PPL</fcode>
</geoname>
<geoname>
<toponymName>Kyaikto</toponymName>
<name>Kyaikto</name>
<lat>17.30858</lat>
<lng>97.01124</lng>
<geonameId>1317375</geonameId>
<countryCode>MM</countryCode>
<countryName>Myanmar [Burma]</countryName>
<fcl>P</fcl>
<fcode>PPL</fcode>
</geoname>
<geoname>
<toponymName>Kyaiklat</toponymName>
<name>Kyaiklat</name>
<lat>16.44502</lat>
<lng>95.72373</lng>
<geonameId>1317397</geonameId>
<countryCode>MM</countryCode>
<countryName>Myanmar [Burma]</countryName>
<fcl>P</fcl>
<fcode>PPL</fcode>
</geoname>
<geoname>
<toponymName>Kyaikkami</toponymName>
<name>Kyaikkami</name>
<lat>16.07686</lat>
<lng>97.56388</lng>
<geonameId>1317402</geonameId>
<countryCode>MM</countryCode>
<countryName>Myanmar [Burma]</countryName>
<fcl>P</fcl>
<fcode>PPL</fcode>
</geoname>
<geoname>
<toponymName>Kokunye Kyun</toponymName>
<name>Kokunye Kyun</name>
<lat>15.3028</lat>
<lng>97.70584</lng>
<geonameId>1318709</geonameId>
<countryCode>MM</countryCode>
<countryName>Myanmar [Burma]</countryName>
<fcl>T</fcl>
<fcode>ISL</fcode>
</geoname>
<geoname>
<toponymName>Kanbe</toponymName>
<name>Kanbe</name>
<lat>16.70728</lat>
<lng>96.00168</lng>
<geonameId>1320944</geonameId>
<countryCode>MM</countryCode>
<countryName>Myanmar [Burma]</countryName>
<fcl>P</fcl>
<fcode>PPL</fcode>
</geoname>
<geoname>
<toponymName>Kalegauk Island</toponymName>
<name>Kalegauk Island</name>
<lat>15.54168</lat>
<lng>97.65395</lng>
<geonameId>1321235</geonameId>
<countryCode>MM</countryCode>
<countryName>Myanmar [Burma]</countryName>
<fcl>T</fcl>
<fcode>ISL</fcode>
</geoname>
<geoname>
<toponymName>Inya Lake</toponymName>
<name>Inya Lake</name>
<lat>16.83639</lat>
<lng>96.14222</lng>
<geonameId>1321877</geonameId>
<countryCode>MM</countryCode>
<countryName>Myanmar [Burma]</countryName>
<fcl>H</fcl>
<fcode>LK</fcode>
</geoname>
<geoname>
<toponymName>Inle Lake</toponymName>
<name>Inle Lake</name>
<lat>20.54735</lat>
<lng>96.91609</lng>
<geonameId>1322000</geonameId>
<countryCode>MM</countryCode>
<countryName>Myanmar [Burma]</countryName>
<fcl>H</fcl>
<fcode>LK</fcode>
</geoname>
<geoname>
<toponymName>Indawgyi Lake</toponymName>
<name>Indawgyi Lake</name>
<lat>25.1349</lat>
<lng>96.33334</lng>
<geonameId>1322182</geonameId>
<countryCode>MM</countryCode>
<countryName>Myanmar [Burma]</countryName>
<fcl>H</fcl>
<fcode>LK</fcode>
</geoname>
<geoname>
<toponymName>Hinthada District</toponymName>
<name>Hinthada District</name>
<lat>17.8532</lat>
<lng>95.20172</lng>
<geonameId>1325210</geonameId>
<countryCode>MM</countryCode>
<countryName>Myanmar [Burma]</countryName>
<fcl>A</fcl>
<fcode>ADM2</fcode>
</geoname>
<geoname>
<toponymName>Bago District</toponymName>
<name>Bago District</name>
<lat>17.31918</lat>
<lng>96.5506</lng>
<geonameId>1325361</geonameId>
<countryCode>MM</countryCode>
<countryName>Myanmar [Burma]</countryName>
<fcl>A</fcl>
<fcode>ADM2</fcode>
</geoname>
<geoname>
<toponymName>Hakha</toponymName>
<name>Hakha</name>
<lat>22.65</lat>
<lng>93.61667</lng>
<geonameId>1325443</geonameId>
<countryCode>MM</countryCode>
<countryName>Myanmar [Burma]</countryName>
<fcl>P</fcl>
<fcode>PPLA</fcode>
</geoname>
<geoname>
<toponymName>Coco Islands</toponymName>
<name>Coco Islands</name>
<lat>14.08333</lat>
<lng>93.3</lng>
<geonameId>1327016</geonameId>
<countryCode>MM</countryCode>
<countryName>Myanmar [Burma]</countryName>
<fcl>T</fcl>
<fcode>ISLS</fcode>
</geoname>
<geoname>
<toponymName>Bhamo District</toponymName>
<name>Bhamo District</name>
<lat>24.26023</lat>
<lng>97.17882</lng>
<geonameId>1328217</geonameId>
<countryCode>MM</countryCode>
<countryName>Myanmar [Burma]</countryName>
<fcl>A</fcl>
<fcode>ADM2</fcode>
</geoname>
<geoname>
<toponymName>Bhamo</toponymName>
<name>Bhamo</name>
<lat>24.25256</lat>
<lng>97.23357</lng>
<geonameId>1328218</geonameId>
<countryCode>MM</countryCode>
<countryName>Myanmar [Burma]</countryName>
<fcl>P</fcl>
<fcode>PPL</fcode>
</geoname>
<geoname>
<toponymName>Pathein District</toponymName>
<name>Pathein District</name>
<lat>16.87954</lat>
<lng>94.71487</lng>
<geonameId>1328420</geonameId>
<countryCode>MM</countryCode>
<countryName>Myanmar [Burma]</countryName>
<fcl>A</fcl>
<fcode>ADM2</fcode>
</geoname>
<geoname>
<toponymName>Arakan Coast</toponymName>
<name>Arakan Coast</name>
<lat>19</lat>
<lng>94</lng>
<geonameId>1329058</geonameId>
<countryCode>MM</countryCode>
<countryName>Myanmar [Burma]</countryName>
<fcl>L</fcl>
<fcode>CST</fcode>
</geoname>
<geoname>
<toponymName>Akyab</toponymName>
<name>Akyab</name>
<lat>20.13271</lat>
<lng>92.87263</lng>
<geonameId>1329416</geonameId>
<countryCode>MM</countryCode>
<countryName>Myanmar [Burma]</countryName>
<fcl>S</fcl>
<fcode>AIRP</fcode>
</geoname>
<geoname>
<toponymName>Yemyet In</toponymName>
<name>Yemyet In</name>
<lat>22.05878</lat>
<lng>95.89341</lng>
<geonameId>1285190</geonameId>
<countryCode>MM</countryCode>
<countryName>Myanmar [Burma]</countryName>
<fcl>H</fcl>
<fcode>LK</fcode>
</geoname>
<geoname>
<toponymName>Nyaungdon</toponymName>
<name>Nyaungdon</name>
<lat>17.04459</lat>
<lng>95.63957</lng>
<geonameId>1285871</geonameId>
<countryCode>MM</countryCode>
<countryName>Myanmar [Burma]</countryName>
<fcl>P</fcl>
<fcode>PPL</fcode>
</geoname>
<geoname>
<toponymName>Yamethin District</toponymName>
<name>Yamethin District</name>
<lat>20.5022</lat>
<lng>96.11984</lng>
<geonameId>1285898</geonameId>
<countryCode>MM</countryCode>
<countryName>Myanmar [Burma]</countryName>
<fcl>A</fcl>
<fcode>ADM2</fcode>
</geoname>
<geoname>
<toponymName>Wakema</toponymName>
<name>Wakema</name>
<lat>16.60333</lat>
<lng>95.18278</lng>
<geonameId>1289828</geonameId>
<countryCode>MM</countryCode>
<countryName>Myanmar [Burma]</countryName>
<fcl>P</fcl>
<fcode>PPL</fcode>
</geoname>
<geoname>
<toponymName>Mawlaik District</toponymName>
<name>Mawlaik District</name>
<lat>23.92764</lat>
<lng>94.71738</lng>
<geonameId>1290189</geonameId>
<countryCode>MM</countryCode>
<countryName>Myanmar [Burma]</countryName>
<fcl>A</fcl>
<fcode>ADM2</fcode>
</geoname>
<geoname>
<toponymName>Taungoo District</toponymName>
<name>Taungoo District</name>
<lat>18.62987</lat>
<lng>96.4164</lng>
<geonameId>1290595</geonameId>
<countryCode>MM</countryCode>
<countryName>Myanmar [Burma]</countryName>
<fcl>A</fcl>
<fcode>ADM2</fcode>
</geoname>
<geoname>
<toponymName>Thongwa</toponymName>
<name>Thongwa</name>
<lat>16.75998</lat>
<lng>96.52498</lng>
<geonameId>1291193</geonameId>
<countryCode>MM</countryCode>
<countryName>Myanmar [Burma]</countryName>
<fcl>P</fcl>
<fcode>PPL</fcode>
</geoname>
<geoname>
<toponymName>Thandwe District</toponymName>
<name>Thandwe District</name>
<lat>18.51281</lat>
<lng>94.51979</lng>
<geonameId>1298070</geonameId>
<countryCode>MM</countryCode>
<countryName>Myanmar [Burma]</countryName>
<fcl>A</fcl>
<fcode>ADM2</fcode>
</geoname>
<geoname>
<toponymName>Sagaing District</toponymName>
<name>Sagaing District</name>
<lat>21.99422</lat>
<lng>95.61831</lng>
<geonameId>1298481</geonameId>
<countryCode>MM</countryCode>
<countryName>Myanmar [Burma]</countryName>
<fcl>A</fcl>
<fcode>ADM2</fcode>
</geoname>
<geoname>
<toponymName>Kandawgyi Lake</toponymName>
<name>Kandawgyi Lake</name>
<lat>16.79479</lat>
<lng>96.16484</lng>
<geonameId>1298695</geonameId>
<countryCode>MM</countryCode>
<countryName>Myanmar [Burma]</countryName>
<fcl>H</fcl>
<fcode>LK</fcode>
</geoname>
<geoname>
<toponymName>Rangoon District</toponymName>
<name>Rangoon District</name>
<lat>16.75</lat>
<lng>96.25</lng>
<geonameId>1298823</geonameId>
<countryCode>MM</countryCode>
<countryName>Myanmar [Burma]</countryName>
<fcl>A</fcl>
<fcode>ADM2H</fcode>
</geoname>
<geoname>
<toponymName>Pyu</toponymName>
<name>Pyu</name>
<lat>18.4813</lat>
<lng>96.43742</lng>
<geonameId>1298911</geonameId>
<countryCode>MM</countryCode>
<countryName>Myanmar [Burma]</countryName>
<fcl>P</fcl>
<fcode>PPL</fcode>
</geoname>
<geoname>
<toponymName>Pyapon District</toponymName>
<name>Pyapon District</name>
<lat>16.18031</lat>
<lng>95.55134</lng>
<geonameId>1299235</geonameId>
<countryCode>MM</countryCode>
<countryName>Myanmar [Burma]</countryName>
<fcl>A</fcl>
<fcode>ADM2</fcode>
</geoname>
<geoname>
<toponymName>Pyapon</toponymName>
<name>Pyapon</name>
<lat>16.28543</lat>
<lng>95.67882</lng>
<geonameId>1299237</geonameId>
<countryCode>MM</countryCode>
<countryName>Myanmar [Burma]</countryName>
<fcl>P</fcl>
<fcode>PPL</fcode>
</geoname>
<geoname>
<toponymName>Pyay District</toponymName>
<name>Pyay District</name>
<lat>18.69254</lat>
<lng>95.37032</lng>
<geonameId>1299531</geonameId>
<countryCode>MM</countryCode>
<countryName>Myanmar [Burma]</countryName>
<fcl>A</fcl>
<fcode>ADM2</fcode>
</geoname>
<geoname>
<toponymName>Pakokku District</toponymName>
<name>Pakokku District</name>
<lat>21.55903</lat>
<lng>94.52089</lng>
<geonameId>1302438</geonameId>
<countryCode>MM</countryCode>
<countryName>Myanmar [Burma]</countryName>
<fcl>A</fcl>
<fcode>ADM2</fcode>
</geoname>
<geoname>
<toponymName>Hpa-an</toponymName>
<name>Hpa-an</name>
<lat>16.88953</lat>
<lng>97.63482</lng>
<geonameId>1302849</geonameId>
<countryCode>MM</countryCode>
<countryName>Myanmar [Burma]</countryName>
<fcl>P</fcl>
<fcode>PPLA</fcode>
</geoname>
<geoname>
<toponymName>Nyaunglebin</toponymName>
<name>Nyaunglebin</name>
<lat>17.95363</lat>
<lng>96.72247</lng>
<geonameId>1303406</geonameId>
<countryCode>MM</countryCode>
<countryName>Myanmar [Burma]</countryName>
<fcl>P</fcl>
<fcode>PPL</fcode>
</geoname>
<geoname>
<toponymName>Thayet District</toponymName>
<name>Thayet District</name>
<lat>19.41673</lat>
<lng>95.06472</lng>
<geonameId>1292036</geonameId>
<countryCode>MM</countryCode>
<countryName>Myanmar [Burma]</countryName>
<fcl>A</fcl>
<fcode>ADM2</fcode>
</geoname>
<geoname>
<toponymName>Thaton District</toponymName>
<name>Thaton District</name>
<lat>17.1325</lat>
<lng>97.2747</lng>
<geonameId>1292287</geonameId>
<countryCode>MM</countryCode>
<countryName>Myanmar [Burma]</countryName>
<fcl>A</fcl>
<fcode>ADM2</fcode>
</geoname>
<geoname>
<toponymName>Thayarwady District</toponymName>
<name>Thayarwady District</name>
<lat>18</lat>
<lng>95.5</lng>
<geonameId>1292312</geonameId>
<countryCode>MM</countryCode>
<countryName>Myanmar [Burma]</countryName>
<fcl>A</fcl>
<fcode>ADM2</fcode>
</geoname>
<geoname>
<toponymName>Thanatpin</toponymName>
<name>Thanatpin</name>
<lat>17.29136</lat>
<lng>96.57523</lng>
<geonameId>1292579</geonameId>
<countryCode>MM</countryCode>
<countryName>Myanmar [Burma]</countryName>
<fcl>P</fcl>
<fcode>PPL</fcode>
</geoname>
<geoname>
<toponymName>Dawei District</toponymName>
<name>Dawei District</name>
<lat>14.09106</lat>
<lng>98.47457</lng>
<geonameId>1293624</geonameId>
<countryCode>MM</countryCode>
<countryName>Myanmar [Burma]</countryName>
<fcl>A</fcl>
<fcode>ADM2</fcode>
</geoname>
<geoname>
<toponymName>Pangsau Pass</toponymName>
<name>Pangsau Pass</name>
<lat>27.25</lat>
<lng>96.16667</lng>
<geonameId>1260491</geonameId>
<countryCode>MM</countryCode>
<countryName>Myanmar [Burma]</countryName>
<fcl>T</fcl>
<fcode>PASS</fcode>
</geoname>
<geoname>
<toponymName>Yangon International Airport</toponymName>
<name>Yangon International Airport</name>
<lat>16.90731</lat>
<lng>96.13322</lng>
<geonameId>6301176</geonameId>
<countryCode>MM</countryCode>
<countryName>Myanmar [Burma]</countryName>
<fcl>S</fcl>
<fcode>AIRP</fcode>
</geoname>
<geoname>
<toponymName>Thandwe Airport</toponymName>
<name>Thandwe Airport</name>
<lat>18.46038</lat>
<lng>94.30001</lng>
<geonameId>7910206</geonameId>
<countryCode>MM</countryCode>
<countryName>Myanmar [Burma]</countryName>
<fcl>S</fcl>
<fcode>AIRP</fcode>
</geoname>
<geoname>
<toponymName>Myitkyina Airport</toponymName>
<name>Myitkyina Airport</name>
<lat>25.3817</lat>
<lng>97.35417</lng>
<geonameId>7910373</geonameId>
<countryCode>MM</countryCode>
<countryName>Myanmar [Burma]</countryName>
<fcl>S</fcl>
<fcode>AIRP</fcode>
</geoname>
<geoname>
<toponymName>Bagan Nyaung U Airport</toponymName>
<name>Bagan Nyaung U Airport</name>
<lat>21.1788</lat>
<lng>94.9302</lng>
<geonameId>7668653</geonameId>
<countryCode>MM</countryCode>
<countryName>Myanmar [Burma]</countryName>
<fcl>S</fcl>
<fcode>AIRP</fcode>
</geoname>
<geoname>
<toponymName>Dawei Airport</toponymName>
<name>Dawei Airport</name>
<lat>14.1039</lat>
<lng>98.2036</lng>
<geonameId>7668654</geonameId>
<countryCode>MM</countryCode>
<countryName>Myanmar [Burma]</countryName>
<fcl>S</fcl>
<fcode>AIRP</fcode>
</geoname>
<geoname>
<toponymName>Kanti Airport</toponymName>
<name>Kanti Airport</name>
<lat>25.9883</lat>
<lng>95.6744</lng>
<geonameId>7668656</geonameId>
<countryCode>MM</countryCode>
<countryName>Myanmar [Burma]</countryName>
<fcl>S</fcl>
<fcode>AIRP</fcode>
</geoname>
<geoname>
<toponymName>Kawthoung Airport</toponymName>
<name>Kawthaung Airport</name>
<lat>10.0493</lat>
<lng>98.538</lng>
<geonameId>7668658</geonameId>
<countryCode>MM</countryCode>
<countryName>Myanmar [Burma]</countryName>
<fcl>S</fcl>
<fcode>AIRP</fcode>
</geoname>
<geoname>
<toponymName>Momeik Airport</toponymName>
<name>Momeik Airport</name>
<lat>23.0925</lat>
<lng>96.6453</lng>
<geonameId>7730229</geonameId>
<countryCode>MM</countryCode>
<countryName>Myanmar [Burma]</countryName>
<fcl>S</fcl>
<fcode>AIRP</fcode>
</geoname>
<geoname>
<toponymName>Namsang Airport</toponymName>
<name>Namsang Airport</name>
<lat>20.8905</lat>
<lng>97.7359</lng>
<geonameId>7730230</geonameId>
<countryCode>MM</countryCode>
<countryName>Myanmar [Burma]</countryName>
<fcl>S</fcl>
<fcode>AIRP</fcode>
</geoname>
<geoname>
<toponymName>Gangaw Airport</toponymName>
<name>Gangaw Airport</name>
<lat>22.1747</lat>
<lng>94.1344</lng>
<geonameId>7731041</geonameId>
<countryCode>MM</countryCode>
<countryName>Myanmar [Burma]</countryName>
<fcl>S</fcl>
<fcode>AIRP</fcode>
</geoname>
<geoname>
<toponymName>Gwa Airport</toponymName>
<name>Gwa Airport</name>
<lat>17.6</lat>
<lng>94.5833</lng>
<geonameId>7731080</geonameId>
<countryCode>MM</countryCode>
<countryName>Myanmar [Burma]</countryName>
<fcl>S</fcl>
<fcode>AIRP</fcode>
</geoname>
<geoname>
<toponymName>Hinthada Airport</toponymName>
<name>Henzada Airport</name>
<lat>17.63333</lat>
<lng>95.4667</lng>
<geonameId>7731082</geonameId>
<countryCode>MM</countryCode>
<countryName>Myanmar [Burma]</countryName>
<fcl>S</fcl>
<fcode>AIRP</fcode>
</geoname>
<geoname>
<toponymName>Kyauktu Airport</toponymName>
<name>Kyauktu Airport</name>
<lat>21.4</lat>
<lng>94.1333</lng>
<geonameId>7731204</geonameId>
<countryCode>MM</countryCode>
<countryName>Myanmar [Burma]</countryName>
<fcl>S</fcl>
<fcode>AIRP</fcode>
</geoname>
<geoname>
<toponymName>Mong Tong Airport</toponymName>
<name>Mong Tong Airport</name>
<lat>20.2967</lat>
<lng>98.8989</lng>
<geonameId>7731267</geonameId>
<countryCode>MM</countryCode>
<countryName>Myanmar [Burma]</countryName>
<fcl>S</fcl>
<fcode>AIRP</fcode>
</geoname>
<geoname>
<toponymName>Manaung Airport</toponymName>
<name>Manaung Airport</name>
<lat>18.84647</lat>
<lng>93.68355</lng>
<geonameId>7731269</geonameId>
<countryCode>MM</countryCode>
<countryName>Myanmar [Burma]</countryName>
<fcl>S</fcl>
<fcode>AIRP</fcode>
</geoname>
<geoname>
<toponymName>Namtu Airport</toponymName>
<name>Namtu Airport</name>
<lat>23.083</lat>
<lng>97.383</lng>
<geonameId>7731339</geonameId>
<countryCode>MM</countryCode>
<countryName>Myanmar [Burma]</countryName>
<fcl>S</fcl>
<fcode>AIRP</fcode>
</geoname>
<geoname>
<toponymName>Pakhokku Airport</toponymName>
<name>Pakhokku Airport</name>
<lat>21.41056</lat>
<lng>95.11173</lng>
<geonameId>7731402</geonameId>
<countryCode>MM</countryCode>
<countryName>Myanmar [Burma]</countryName>
<fcl>S</fcl>
<fcode>AIRP</fcode>
</geoname>
<geoname>
<toponymName>Pyay Airport</toponymName>
<name>Pyay Airport</name>
<lat>18.8245</lat>
<lng>95.266</lng>
<geonameId>7731413</geonameId>
<countryCode>MM</countryCode>
<countryName>Myanmar [Burma]</countryName>
<fcl>S</fcl>
<fcode>AIRP</fcode>
</geoname>
<geoname>
<toponymName>Tilin Airport</toponymName>
<name>Tilin Airport</name>
<lat>21.7</lat>
<lng>94.1</lng>
<geonameId>7731545</geonameId>
<countryCode>MM</countryCode>
<countryName>Myanmar [Burma]</countryName>
<fcl>S</fcl>
<fcode>AIRP</fcode>
</geoname>
<geoname>
<toponymName>Ye Airport</toponymName>
<name>Ye Airport</name>
<lat>15.30041</lat>
<lng>97.86398</lng>
<geonameId>7731643</geonameId>
<countryCode>MM</countryCode>
<countryName>Myanmar [Burma]</countryName>
<fcl>S</fcl>
<fcode>AIRP</fcode>
</geoname>
<geoname>
<toponymName>Labutta District</toponymName>
<name>Labutta District</name>
<lat>16.25406</lat>
<lng>95.04221</lng>
<geonameId>8238693</geonameId>
<countryCode>MM</countryCode>
<countryName>Myanmar [Burma]</countryName>
<fcl>A</fcl>
<fcode>ADM2</fcode>
</geoname>
<geoname>
<toponymName>Hpa-an District</toponymName>
<name>Hpa-an District</name>
<lat>16.87289</lat>
<lng>97.7179</lng>
<geonameId>8238709</geonameId>
<countryCode>MM</countryCode>
<countryName>Myanmar [Burma]</countryName>
<fcl>A</fcl>
<fcode>ADM2</fcode>
</geoname>
<geoname>
<toponymName>Kawkareik District</toponymName>
<name>Kawkareik District</name>
<lat>16.41501</lat>
<lng>98.23975</lng>
<geonameId>8238711</geonameId>
<countryCode>MM</countryCode>
<countryName>Myanmar [Burma]</countryName>
<fcl>A</fcl>
<fcode>ADM2</fcode>
</geoname>
<geoname>
<toponymName>Bawlakhe District</toponymName>
<name>Bawlakhe District</name>
<lat>18.92128</lat>
<lng>97.42915</lng>
<geonameId>8238712</geonameId>
<countryCode>MM</countryCode>
<countryName>Myanmar [Burma]</countryName>
<fcl>A</fcl>
<fcode>ADM2</fcode>
</geoname>
<geoname>
<toponymName>Loikaw District</toponymName>
<name>Loikaw District</name>
<lat>19.49125</lat>
<lng>97.34175</lng>
<geonameId>8238713</geonameId>
<countryCode>MM</countryCode>
<countryName>Myanmar [Burma]</countryName>
<fcl>A</fcl>
<fcode>ADM2</fcode>
</geoname>
<geoname>
<toponymName>Pyin Oo Lwin District</toponymName>
<name>Pyin Oo Lwin District</name>
<lat>22.80987</lat>
<lng>96.18107</lng>
<geonameId>8238738</geonameId>
<countryCode>MM</countryCode>
<countryName>Myanmar [Burma]</countryName>
<fcl>A</fcl>
<fcode>ADM2</fcode>
</geoname>
<geoname>
<toponymName>Kale District</toponymName>
<name>Kale District</name>
<lat>23.05571</lat>
<lng>94.41054</lng>
<geonameId>8238743</geonameId>
<countryCode>MM</countryCode>
<countryName>Myanmar [Burma]</countryName>
<fcl>A</fcl>
<fcode>ADM2</fcode>
</geoname>
<geoname>
<toponymName>Tamu District</toponymName>
<name>Tamu District</name>
<lat>24.21907</lat>
<lng>94.40602</lng>
<geonameId>8238747</geonameId>
<countryCode>MM</countryCode>
<countryName>Myanmar [Burma]</countryName>
<fcl>A</fcl>
<fcode>ADM2</fcode>
</geoname>
<geoname>
<toponymName>Kunlong District</toponymName>
<name>Kunlong District</name>
<lat>23.61522</lat>
<lng>98.72225</lng>
<geonameId>8238749</geonameId>
<countryCode>MM</countryCode>
<countryName>Myanmar [Burma]</countryName>
<fcl>A</fcl>
<fcode>ADM2H</fcode>
</geoname>
<geoname>
<toponymName>Tachileik District</toponymName>
<name>Tachileik District</name>
<lat>20.67855</lat>
<lng>100.0341</lng>
<geonameId>8238752</geonameId>
<countryCode>MM</countryCode>
<countryName>Myanmar [Burma]</countryName>
<fcl>A</fcl>
<fcode>ADM2</fcode>
</geoname>
<geoname>
<toponymName>Mong Hsat District</toponymName>
<name>Mong Hsat District</name>
<lat>20.37521</lat>
<lng>99.05618</lng>
<geonameId>8238772</geonameId>
<countryCode>MM</countryCode>
<countryName>Myanmar [Burma]</countryName>
<fcl>A</fcl>
<fcode>ADM2</fcode>
</geoname>
<geoname>
<toponymName>Kyaukme District</toponymName>
<name>Kyaukme District</name>
<lat>22.89804</lat>
<lng>97.0074</lng>
<geonameId>8238774</geonameId>
<countryCode>MM</countryCode>
<countryName>Myanmar [Burma]</countryName>
<fcl>A</fcl>
<fcode>ADM2</fcode>
</geoname>
<geoname>
<toponymName>Mu Se District</toponymName>
<name>Mu Se District</name>
<lat>23.70528</lat>
<lng>98.03429</lng>
<geonameId>8238775</geonameId>
<countryCode>MM</countryCode>
<countryName>Myanmar [Burma]</countryName>
<fcl>A</fcl>
<fcode>ADM2</fcode>
</geoname>
<geoname>
<toponymName>Loilem District</toponymName>
<name>Loilem District</name>
<lat>21.31359</lat>
<lng>97.92655</lng>
<geonameId>8238776</geonameId>
<countryCode>MM</countryCode>
<countryName>Myanmar [Burma]</countryName>
<fcl>A</fcl>
<fcode>ADM2</fcode>
</geoname>
<geoname>
<toponymName>Kengtung District</toponymName>
<name>Kengtung District</name>
<lat>21.58298</lat>
<lng>99.5889</lng>
<geonameId>8238778</geonameId>
<countryCode>MM</countryCode>
<countryName>Myanmar [Burma]</countryName>
<fcl>A</fcl>
<fcode>ADM2</fcode>
</geoname>
<geoname>
<toponymName>Lashio District</toponymName>
<name>Lashio District</name>
<lat>22.83083</lat>
<lng>98.15008</lng>
<geonameId>8238779</geonameId>
<countryCode>MM</countryCode>
<countryName>Myanmar [Burma]</countryName>
<fcl>A</fcl>
<fcode>ADM2</fcode>
</geoname>
<geoname>
<toponymName>Mawlamyine District</toponymName>
<name>Mawlamyine District</name>
<lat>15.76141</lat>
<lng>97.85175</lng>
<geonameId>8238822</geonameId>
<countryCode>MM</countryCode>
<countryName>Myanmar [Burma]</countryName>
<fcl>A</fcl>
<fcode>ADM2</fcode>
</geoname>
<geoname>
<toponymName>Gangaw District</toponymName>
<name>Gangaw District</name>
<lat>21.79498</lat>
<lng>94.17954</lng>
<geonameId>8238823</geonameId>
<countryCode>MM</countryCode>
<countryName>Myanmar [Burma]</countryName>
<fcl>A</fcl>
<fcode>ADM2</fcode>
</geoname>
<geoname>
<toponymName>Yangon East District</toponymName>
<name>Yangon East District</name>
<lat>16.87171</lat>
<lng>96.12894</lng>
<geonameId>8239357</geonameId>
<countryCode>MM</countryCode>
<countryName>Myanmar [Burma]</countryName>
<fcl>A</fcl>
<fcode>ADM2</fcode>
</geoname>
<geoname>
<toponymName>Monywa Airport</toponymName>
<name>Monywa Airport</name>
<lat>22.22396</lat>
<lng>95.09328</lng>
<geonameId>8643364</geonameId>
<countryCode>MM</countryCode>
<countryName>Myanmar [Burma]</countryName>
<fcl>S</fcl>
<fcode>AIRP</fcode>
</geoname>
<geoname>
<toponymName>Hpa-An Airport</toponymName>
<name>Hpa-An Airport</name>
<lat>16.894</lat>
<lng>97.675</lng>
<geonameId>8298859</geonameId>
<countryCode>MM</countryCode>
<countryName>Myanmar [Burma]</countryName>
<fcl>S</fcl>
<fcode>AIRP</fcode>
</geoname>
<geoname>
<toponymName>Mandalay Chanmyathazi Airport</toponymName>
<name>Mandalay Chanmyathazi Airport</name>
<lat>21.94157</lat>
<lng>96.08943</lng>
<geonameId>11102735</geonameId>
<countryCode>MM</countryCode>
<countryName>Myanmar [Burma]</countryName>
<fcl>S</fcl>
<fcode>AIRP</fcode>
</geoname>
<geoname>
<toponymName>Hpapun</toponymName>
<name>Hpapun</name>
<lat>18.07659</lat>
<lng>97.36866</lng>
<geonameId>11154017</geonameId>
<countryCode>MM</countryCode>
<countryName>Myanmar [Burma]</countryName>
<fcl>A</fcl>
<fcode>ADM2</fcode>
</geoname>
<geoname>
<toponymName>Nay Pyi Taw (South)</toponymName>
<name>Nay Pyi Taw (South)</name>
<lat>19.6402</lat>
<lng>96.16847</lng>
<geonameId>11154018</geonameId>
<countryCode>MM</countryCode>
<countryName>Myanmar [Burma]</countryName>
<fcl>A</fcl>
<fcode>ADM2</fcode>
</geoname>
<geoname>
<toponymName>Mrauk-U</toponymName>
<name>Mrauk-U</name>
<lat>20.47661</lat>
<lng>93.35497</lng>
<geonameId>11154019</geonameId>
<countryCode>MM</countryCode>
<countryName>Myanmar [Burma]</countryName>
<fcl>A</fcl>
<fcode>ADM2</fcode>
</geoname>
<geoname>
<toponymName>Monywa</toponymName>
<name>Monywa</name>
<lat>22.2573</lat>
<lng>95.26376</lng>
<geonameId>11154020</geonameId>
<countryCode>MM</countryCode>
<countryName>Myanmar [Burma]</countryName>
<fcl>A</fcl>
<fcode>ADM2</fcode>
</geoname>
<geoname>
<toponymName>Yangon (East)</toponymName>
<name>Yangon (East)</name>
<lat>16.89793</lat>
<lng>96.24799</lng>
<geonameId>11154021</geonameId>
<countryCode>MM</countryCode>
<countryName>Myanmar [Burma]</countryName>
<fcl>A</fcl>
<fcode>ADM2</fcode>
</geoname>
<geoname>
<toponymName>Yangon (North)</toponymName>
<name>Yangon (North)</name>
<lat>17.26922</lat>
<lng>96.03035</lng>
<geonameId>11154022</geonameId>
<countryCode>MM</countryCode>
<countryName>Myanmar [Burma]</countryName>
<fcl>A</fcl>
<fcode>ADM2</fcode>
</geoname>
<geoname>
<toponymName>Nay Pyi Taw (North)</toponymName>
<name>Nay Pyi Taw (North)</name>
<lat>20.04775</lat>
<lng>96.1384</lng>
<geonameId>11154023</geonameId>
<countryCode>MM</countryCode>
<countryName>Myanmar [Burma]</countryName>
<fcl>A</fcl>
<fcode>ADM2</fcode>
</geoname>
<geoname>
<toponymName>Tagondaing</toponymName>
<name>Tagundaing</name>
<lat>16.0675</lat>
<lng>97.90694</lng>
<geonameId>11524872</geonameId>
<countryCode>MM</countryCode>
<countryName>Myanmar [Burma]</countryName>
<fcl>P</fcl>
<fcode>PPL</fcode>
</geoname>
<geoname>
<toponymName>Burma</toponymName>
<name>Burma</name>
<lat>7.96717</lat>
<lng>-12.673</lng>
<geonameId>2405203</geonameId>
<countryCode>SL</countryCode>
<countryName>Sierra Leone</countryName>
<fcl>P</fcl>
<fcode>PPL</fcode>
</geoname>
<geoname>
<toponymName>Burma</toponymName>
<name>Burma</name>
<lat>7.11953</lat>
<lng>-11.31842</lng>
<geonameId>2278215</geonameId>
<countryCode>LR</countryCode>
<countryName>Liberia</countryName>
<fcl>P</fcl>
<fcode>PPL</fcode>
</geoname>
<geoname>
<toponymName>Qimmat Bīrmā Brīmīshk</toponymName>
<name>Qimmat Bīrmā Brīmīshk</name>
<lat>37.15097</lat>
<lng>44.67882</lng>
<geonameId>7103299</geonameId>
<countryCode>IQ</countryCode>
<countryName>Iraq</countryName>
<fcl>T</fcl>
<fcode>PK</fcode>
</geoname>
<geoname>
<toponymName>Birma</toponymName>
<name>Birma</name>
<lat>8.01329</lat>
<lng>-7.41099</lng>
<geonameId>2291544</geonameId>
<countryCode>CI</countryCode>
<countryName>Ivory Coast</countryName>
<fcl>P</fcl>
<fcode>PPL</fcode>
</geoname>
<geoname>
<toponymName>Andaman Sea</toponymName>
<name>Andaman Sea</name>
<lat>10</lat>
<lng>95</lng>
<geonameId>1158425</geonameId>
<countryCode>TH</countryCode>
<countryName>Thailand</countryName>
<fcl>H</fcl>
<fcode>SEA</fcode>
</geoname>
<geoname>
<toponymName>Balma</toponymName>
<name>Balma</name>
<lat>43.61111</lat>
<lng>1.49944</lng>
<geonameId>3035204</geonameId>
<countryCode>FR</countryCode>
<countryName>France</countryName>
<fcl>P</fcl>
<fcode>PPL</fcode>
</geoname>
<geoname>
<toponymName>Vereda Birmania</toponymName>
<name>Vereda Birmania</name>
<lat>1.76048</lat>
<lng>-75.24554</lng>
<geonameId>6979363</geonameId>
<countryCode>CO</countryCode>
<countryName>Colombia</countryName>
<fcl>L</fcl>
<fcode>LCTY</fcode>
</geoname>
<geoname>
<toponymName>Mahuya Reserved Forest</toponymName>
<name>Mahuya Reserved Forest</name>
<lat>17.41642</lat>
<lng>96.24285</lng>
<geonameId>1312305</geonameId>
<countryCode>MM</countryCode>
<countryName>Myanmar [Burma]</countryName>
<fcl>L</fcl>
<fcode>RESF</fcode>
</geoname>
<geoname>
<toponymName>Magwe Reserved Forest</toponymName>
<name>Magwe Reserved Forest</name>
<lat>20.66667</lat>
<lng>96.5</lng>
<geonameId>1312602</geonameId>
<countryCode>MM</countryCode>
<countryName>Myanmar [Burma]</countryName>
<fcl>L</fcl>
<fcode>RESF</fcode>
</geoname>
<geoname>
<toponymName>Mabein</toponymName>
<name>Mabein</name>
<lat>23.47663</lat>
<lng>96.60077</lng>
<geonameId>1312704</geonameId>
<countryCode>MM</countryCode>
<countryName>Myanmar [Burma]</countryName>
<fcl>P</fcl>
<fcode>PPL</fcode>
</geoname>
<geoname>
<toponymName>Lower Sinthe Reserved Forest</toponymName>
<name>Lower Sinthe Reserved Forest</name>
<lat>20.02608</lat>
<lng>96.11652</lng>
<geonameId>1312972</geonameId>
<countryCode>MM</countryCode>
<countryName>Myanmar [Burma]</countryName>
<fcl>L</fcl>
<fcode>RESF</fcode>
</geoname>
<geoname>
<toponymName>Lingadipa</toponymName>
<name>Lingadipa</name>
<lat>21.89594</lat>
<lng>95.51704</lng>
<geonameId>1313702</geonameId>
<countryCode>MM</countryCode>
<countryName>Myanmar [Burma]</countryName>
<fcl>P</fcl>
<fcode>PPL</fcode>
</geoname>
<geoname>
<toponymName>Letpanzin</toponymName>
<name>Letpanzin</name>
<lat>21.8992</lat>
<lng>95.82643</lng>
<geonameId>1313866</geonameId>
<countryCode>MM</countryCode>
<countryName>Myanmar [Burma]</countryName>
<fcl>P</fcl>
<fcode>PPL</fcode>
</geoname>
<geoname>
<toponymName>Kyungyi</toponymName>
<name>Kyungyi</name>
<lat>15.06832</lat>
<lng>97.73466</lng>
<geonameId>1315542</geonameId>
<countryCode>MM</countryCode>
<countryName>Myanmar [Burma]</countryName>
<fcl>T</fcl>
<fcode>ISL</fcode>
</geoname>
<geoname>
<toponymName>Kyundaung Reserved Forest</toponymName>
<name>Kyundaung Reserved Forest</name>
<lat>17.57249</lat>
<lng>97.00607</lng>
<geonameId>1315622</geonameId>
<countryCode>MM</countryCode>
<countryName>Myanmar [Burma]</countryName>
<fcl>L</fcl>
<fcode>RESF</fcode>
</geoname>
<geoname>
<toponymName>Ngatwezok In</toponymName>
<name>Ngatwezok In</name>
<lat>18.3735</lat>
<lng>96.67421</lng>
<geonameId>1304402</geonameId>
<countryCode>MM</countryCode>
<countryName>Myanmar [Burma]</countryName>
<fcl>H</fcl>
<fcode>LK</fcode>
</geoname>
<geoname>
<toponymName>Ngalaik Reserved Forest</toponymName>
<name>Ngalaik Reserved Forest</name>
<lat>19.96068</lat>
<lng>95.92537</lng>
<geonameId>1304648</geonameId>
<countryCode>MM</countryCode>
<countryName>Myanmar [Burma]</countryName>
<fcl>L</fcl>
<fcode>RESF</fcode>
</geoname>
<geoname>
<toponymName>Cape Negrais</toponymName>
<name>Cape Negrais</name>
<lat>16.04303</lat>
<lng>94.19265</lng>
<geonameId>1304807</geonameId>
<countryCode>MM</countryCode>
<countryName>Myanmar [Burma]</countryName>
<fcl>T</fcl>
<fcode>HDLD</fcode>
</geoname>
<geoname>
<toponymName>Naungyin</toponymName>
<name>Naungyin</name>
<lat>24.98534</lat>
<lng>97.34396</lng>
<geonameId>1305448</geonameId>
<countryCode>MM</countryCode>
<countryName>Myanmar [Burma]</countryName>
<fcl>H</fcl>
<fcode>LK</fcode>
</geoname>
<geoname>
<toponymName>Naunggon In</toponymName>
<name>Naunggon In</name>
<lat>18.28779</lat>
<lng>96.71871</lng>
<geonameId>1305576</geonameId>
<countryCode>MM</countryCode>
<countryName>Myanmar [Burma]</countryName>
<fcl>H</fcl>
<fcode>LK</fcode>
</geoname>
<geoname>
<toponymName>Nat Kyun</toponymName>
<name>Nat Kyun</name>
<lat>15.17156</lat>
<lng>97.72795</lng>
<geonameId>1305773</geonameId>
<countryCode>MM</countryCode>
<countryName>Myanmar [Burma]</countryName>
<fcl>T</fcl>
<fcode>ISL</fcode>
</geoname>
<geoname>
<toponymName>Nancho Reserved Forest</toponymName>
<name>Nancho Reserved Forest</name>
<lat>19.74286</lat>
<lng>96.42184</lng>
<geonameId>1306212</geonameId>
<countryCode>MM</countryCode>
<countryName>Myanmar [Burma]</countryName>
<fcl>L</fcl>
<fcode>RESF</fcode>
</geoname>
<geoname>
<toponymName>Namkobin Reserved Forest</toponymName>
<name>Namkobin Reserved Forest</name>
<lat>24.99918</lat>
<lng>95.95727</lng>
<geonameId>1306859</geonameId>
<countryCode>MM</countryCode>
<countryName>Myanmar [Burma]</countryName>
<fcl>L</fcl>
<fcode>RESF</fcode>
</geoname>
<geoname>
<toponymName>Mokin</toponymName>
<name>Mokin</name>
<lat>24.10399</lat>
<lng>96.69219</lng>
<geonameId>1308895</geonameId>
<countryCode>MM</countryCode>
<countryName>Myanmar [Burma]</countryName>
<fcl>P</fcl>
<fcode>PPL</fcode>
</geoname>
<geoname>
<toponymName>Mo-hattha In</toponymName>
<name>Mo-hattha In</name>
<lat>18.51505</lat>
<lng>96.642</lng>
<geonameId>1308915</geonameId>
<countryCode>MM</countryCode>
<countryName>Myanmar [Burma]</countryName>
<fcl>H</fcl>
<fcode>LK</fcode>
</geoname>
<geoname>
<toponymName>Myeik Archipelago</toponymName>
<name>Myeik Archipelago</name>
<lat>11.7367</lat>
<lng>98.27586</lng>
<geonameId>1309610</geonameId>
<countryCode>MM</countryCode>
<countryName>Myanmar [Burma]</countryName>
<fcl>T</fcl>
<fcode>ISLS</fcode>
</geoname>
<geoname>
<toponymName>Ma-ubin District</toponymName>
<name>Ma-ubin District</name>
<lat>16.96037</lat>
<lng>95.55621</lng>
<geonameId>1310354</geonameId>
<countryCode>MM</countryCode>
<countryName>Myanmar [Burma]</countryName>
<fcl>A</fcl>
<fcode>ADM2</fcode>
</geoname>
<geoname>
<toponymName>Kyatthaunggauk In</toponymName>
<name>Kyatthaunggauk In</name>
<lat>18.4178</lat>
<lng>96.7326</lng>
<geonameId>1317149</geonameId>
<countryCode>MM</countryCode>
<countryName>Myanmar [Burma]</countryName>
<fcl>H</fcl>
<fcode>LK</fcode>
</geoname>
<geoname>
<toponymName>Kawthoung</toponymName>
<name>Kawthaung</name>
<lat>9.98238</lat>
<lng>98.55034</lng>
<geonameId>1319573</geonameId>
<countryCode>MM</countryCode>
<countryName>Myanmar [Burma]</countryName>
<fcl>P</fcl>
<fcode>PPL</fcode>
</geoname>
<geoname>
<toponymName>Kaing Reserved Forest</toponymName>
<name>Kaing Reserved Forest</name>
<lat>19.8036</lat>
<lng>95.99567</lng>
<geonameId>1321430</geonameId>
<countryCode>MM</countryCode>
<countryName>Myanmar [Burma]</countryName>
<fcl>L</fcl>
<fcode>RESF</fcode>
</geoname>
<geoname>
<toponymName>Kabaw Valley</toponymName>
<name>Kabaw Valley</name>
<lat>24.10529</lat>
<lng>94.34188</lng>
<geonameId>1321746</geonameId>
<countryCode>MM</countryCode>
<countryName>Myanmar [Burma]</countryName>
<fcl>T</fcl>
<fcode>VAL</fcode>
</geoname>
<geoname>
<toponymName>Indawgyi Reserved Forest</toponymName>
<name>Indawgyi Reserved Forest</name>
<lat>25.14567</lat>
<lng>96.47428</lng>
<geonameId>1322181</geonameId>
<countryCode>MM</countryCode>
<countryName>Myanmar [Burma]</countryName>
<fcl>L</fcl>
<fcode>RESF</fcode>
</geoname>
<geoname>
<toponymName>Hukawng Valley</toponymName>
<name>Hukawng Valley</name>
<lat>26.5</lat>
<lng>96.58333</lng>
<geonameId>1322545</geonameId>
<countryCode>MM</countryCode>
<countryName>Myanmar [Burma]</countryName>
<fcl>T</fcl>
<fcode>VAL</fcode>
</geoname>
<geoname>
<toponymName>Nawng Hpai</toponymName>
<name>Nawng Hpai</name>
<lat>19.78722</lat>
<lng>98.96917</lng>
<geonameId>1323832</geonameId>
<countryCode>MM</countryCode>
<countryName>Myanmar [Burma]</countryName>
<fcl>H</fcl>
<fcode>LK</fcode>
</geoname>
<geoname>
<toponymName>Hngetpyaw Kyun</toponymName>
<name>Hngetpyaw Kyun</name>
<lat>15.18207</lat>
<lng>97.72015</lng>
<geonameId>1324250</geonameId>
<countryCode>MM</countryCode>
<countryName>Myanmar [Burma]</countryName>
<fcl>T</fcl>
<fcode>ISL</fcode>
</geoname>
<geoname>
<toponymName>Hlawabon Reserved Forest</toponymName>
<name>Hlawabon Reserved Forest</name>
<lat>20.24086</lat>
<lng>96.02442</lng>
<geonameId>1324530</geonameId>
<countryCode>MM</countryCode>
<countryName>Myanmar [Burma]</countryName>
<fcl>L</fcl>
<fcode>RESF</fcode>
</geoname>
<geoname>
<toponymName>Hlaing Yoma Reserved Forest</toponymName>
<name>Hlaing Yoma Reserved Forest</name>
<lat>17.29575</lat>
<lng>96.06846</lng>
<geonameId>1324540</geonameId>
<countryCode>MM</countryCode>
<countryName>Myanmar [Burma]</countryName>
<fcl>L</fcl>
<fcode>RESF</fcode>
</geoname>
<geoname>
<toponymName>Duya In</toponymName>
<name>Duya In</name>
<lat>17.55672</lat>
<lng>95.4892</lng>
<geonameId>1326224</geonameId>
<countryCode>MM</countryCode>
<countryName>Myanmar [Burma]</countryName>
<fcl>H</fcl>
<fcode>LK</fcode>
</geoname>
<geoname>
<toponymName>Dagwin Reserved Forest</toponymName>
<name>Dagwin Reserved Forest</name>
<lat>18.08789</lat>
<lng>97.56192</lng>
<geonameId>1326975</geonameId>
<countryCode>MM</countryCode>
<countryName>Myanmar [Burma]</countryName>
<fcl>L</fcl>
<fcode>RESF</fcode>
</geoname>
<geoname>
<toponymName>Chaungmange Reserved Forest</toponymName>
<name>Chaungmange Reserved Forest</name>
<lat>18.83908</lat>
<lng>96.61102</lng>
<geonameId>1327469</geonameId>
<countryCode>MM</countryCode>
<countryName>Myanmar [Burma]</countryName>
<fcl>L</fcl>
<fcode>RESF</fcode>
</geoname>
<geoname>
<toponymName>Auriol Island</toponymName>
<name>Auriol Island</name>
<lat>9.64935</lat>
<lng>98.08716</lng>
<geonameId>1328748</geonameId>
<countryCode>MM</countryCode>
<countryName>Myanmar [Burma]</countryName>
<fcl>T</fcl>
<fcode>ISL</fcode>
</geoname>
<geoname>
<toponymName>Rakhine Yoma</toponymName>
<name>Rakhine Yoma</name>
<lat>18.9403</lat>
<lng>94.70057</lng>
<geonameId>1329056</geonameId>
<countryCode>MM</countryCode>
<countryName>Myanmar [Burma]</countryName>
<fcl>T</fcl>
<fcode>MTS</fcode>
</geoname>
<geoname>
<toponymName>Sittwe District</toponymName>
<name>Sittwe District</name>
<lat>20.20035</lat>
<lng>92.86743</lng>
<geonameId>1329415</geonameId>
<countryCode>MM</countryCode>
<countryName>Myanmar [Burma]</countryName>
<fcl>A</fcl>
<fcode>ADM2</fcode>
</geoname>
<geoname>
<toponymName>Mugadok Taung</toponymName>
<name>Mugadok Taung</name>
<lat>15.87243</lat>
<lng>98.60063</lng>
<geonameId>1151968</geonameId>
<countryCode>MM</countryCode>
<countryName>Myanmar [Burma]</countryName>
<fcl>T</fcl>
<fcode>PK</fcode>
</geoname>
<geoname>
<toponymName>Isthmus of Kra</toponymName>
<name>Isthmus of Kra</name>
<lat>10.33333</lat>
<lng>99</lng>
<geonameId>1152636</geonameId>
<countryCode>MM</countryCode>
<countryName>Myanmar [Burma]</countryName>
<fcl>T</fcl>
<fcode>ISTH</fcode>
</geoname>
<geoname>
<toponymName>Yezin Reserved Forest</toponymName>
<name>Yezin Reserved Forest</name>
<lat>19.96316</lat>
<lng>96.32803</lng>
<geonameId>1284948</geonameId>
<countryCode>MM</countryCode>
<countryName>Myanmar [Burma]</countryName>
<fcl>L</fcl>
<fcode>RESF</fcode>
</geoname>
<geoname>
<toponymName>Wa Kyun</toponymName>
<name>Wa Kyun</name>
<lat>15.20143</lat>
<lng>97.73213</lng>
<geonameId>1289814</geonameId>
<countryCode>MM</countryCode>
<countryName>Myanmar [Burma]</countryName>
<fcl>T</fcl>
<fcode>ISL</fcode>
</geoname>
<geoname>
<toponymName>Tonkan Reserved Forest</toponymName>
<name>Tonkan Reserved Forest</name>
<lat>18.25368</lat>
<lng>96.53706</lng>
<geonameId>1290667</geonameId>
<countryCode>MM</countryCode>
<countryName>Myanmar [Burma]</countryName>
<fcl>L</fcl>
<fcode>RESF</fcode>
</geoname>
<geoname>
<toponymName>Tonbo Reserved Forest</toponymName>
<name>Tonbo Reserved Forest</name>
<lat>18.92636</lat>
<lng>96.6437</lng>
<geonameId>1290745</geonameId>
<countryCode>MM</countryCode>
<countryName>Myanmar [Burma]</countryName>
<fcl>L</fcl>
<fcode>RESF</fcode>
</geoname>
<geoname>
<toponymName>Sangpang Bum</toponymName>
<name>Sangpang Bum</name>
<lat>26.48438</lat>
<lng>95.8328</lng>
<geonameId>1298007</geonameId>
<countryCode>MM</countryCode>
<countryName>Myanmar [Burma]</countryName>
<fcl>T</fcl>
<fcode>MTS</fcode>
</geoname>
<geoname>
<toponymName>Pyinmana Reserved Forest</toponymName>
<name>Pyinmana Reserved Forest</name>
<lat>19.79163</lat>
<lng>96.18024</lng>
<geonameId>1298984</geonameId>
<countryCode>MM</countryCode>
<countryName>Myanmar [Burma]</countryName>
<fcl>L</fcl>
<fcode>RESF</fcode>
</geoname>
<geoname>
<toponymName>Pozaungdaung Reserved Forest</toponymName>
<name>Pozaungdaung Reserved Forest</name>
<lat>19.86963</lat>
<lng>96.11678</lng>
<geonameId>1299561</geonameId>
<countryCode>MM</countryCode>
<countryName>Myanmar [Burma]</countryName>
<fcl>L</fcl>
<fcode>RESF</fcode>
</geoname>
<geoname>
<toponymName>Paungde</toponymName>
<name>Paungde</name>
<lat>18.49167</lat>
<lng>95.50591</lng>
<geonameId>1300969</geonameId>
<countryCode>MM</countryCode>
<countryName>Myanmar [Burma]</countryName>
<fcl>P</fcl>
<fcode>PPL</fcode>
</geoname>
<geoname>
<toponymName>Nyaungshwe</toponymName>
<name>Nyaung Shwe</name>
<lat>20.66084</lat>
<lng>96.93405</lng>
<geonameId>1303361</geonameId>
<countryCode>MM</countryCode>
<countryName>Myanmar [Burma]</countryName>
<fcl>P</fcl>
<fcode>PPL</fcode>
</geoname>
<geoname>
<toponymName>Nyaungohidauk Reserved Forest</toponymName>
<name>Nyaungohidauk Reserved Forest</name>
<lat>18.64857</lat>
<lng>96.38128</lng>
<geonameId>1303371</geonameId>
<countryCode>MM</countryCode>
<countryName>Myanmar [Burma]</countryName>
<fcl>L</fcl>
<fcode>RESF</fcode>
</geoname>
<geoname>
<toponymName>North Zamayi Reserved Forest</toponymName>
<name>North Zamayi Reserved Forest</name>
<lat>18.12541</lat>
<lng>96.02303</lng>
<geonameId>1303965</geonameId>
<countryCode>MM</countryCode>
<countryName>Myanmar [Burma]</countryName>
<fcl>L</fcl>
<fcode>RESF</fcode>
</geoname>
<geoname>
<toponymName>Thinhni In</toponymName>
<name>Thinhni In</name>
<lat>18.97903</lat>
<lng>96.46354</lng>
<geonameId>1291434</geonameId>
<countryCode>MM</countryCode>
<countryName>Myanmar [Burma]</countryName>
<fcl>H</fcl>
<fcode>LK</fcode>
</geoname>
<geoname>
<toponymName>Thandaung</toponymName>
<name>Thandaung</name>
<lat>19.02074</lat>
<lng>96.58467</lng>
<geonameId>1292499</geonameId>
<countryCode>MM</countryCode>
<countryName>Myanmar [Burma]</countryName>
<fcl>P</fcl>
<fcode>PPL</fcode>
</geoname>
<geoname>
<toponymName>Taungnyo Reserved Forest</toponymName>
<name>Taungnyo Reserved Forest</name>
<lat>19.98965</lat>
<lng>96.03785</lng>
<geonameId>1293781</geonameId>
<countryCode>MM</countryCode>
<countryName>Myanmar [Burma]</countryName>
<fcl>L</fcl>
<fcode>RESF</fcode>
</geoname>
<geoname>
<toponymName>Tasanaung</toponymName>
<name>Tasanaung</name>
<lat>24.90438</lat>
<lng>97.35717</lng>
<geonameId>1294325</geonameId>
<countryCode>MM</countryCode>
<countryName>Myanmar [Burma]</countryName>
<fcl>H</fcl>
<fcode>LK</fcode>
</geoname>
<geoname>
<toponymName>Syriam</toponymName>
<name>Syriam</name>
<lat>16.76887</lat>
<lng>96.24503</lng>
<geonameId>1295395</geonameId>
<countryCode>MM</countryCode>
<countryName>Myanmar [Burma]</countryName>
<fcl>P</fcl>
<fcode>PPL</fcode>
</geoname>
<geoname>
<toponymName>Sunye In</toponymName>
<name>Sunye In</name>
<lat>21.67805</lat>
<lng>96.22948</lng>
<geonameId>1295467</geonameId>
<countryCode>MM</countryCode>
<countryName>Myanmar [Burma]</countryName>
<fcl>H</fcl>
<fcode>LK</fcode>
</geoname>
<geoname>
<toponymName>Shweudaung Reserved Forest</toponymName>
<name>Shweudaung Reserved Forest</name>
<lat>23.02153</lat>
<lng>96.24856</lng>
<geonameId>1296460</geonameId>
<countryCode>MM</countryCode>
<countryName>Myanmar [Burma]</countryName>
<fcl>L</fcl>
<fcode>RESF</fcode>
</geoname>
<geoname>
<toponymName>Naypyidaw</toponymName>
<name>Naypyidaw</name>
<lat>19.73661</lat>
<lng>96.20719</lng>
<geonameId>6545142</geonameId>
<countryCode>MM</countryCode>
<countryName>Myanmar [Burma]</countryName>
<fcl>P</fcl>
<fcode>PPL</fcode>
</geoname>
<geoname>
<toponymName>Maungdaw District</toponymName>
<name>Maungdaw District</name>
<lat>21.00382</lat>
<lng>92.37624</lng>
<geonameId>8238605</geonameId>
<countryCode>MM</countryCode>
<countryName>Myanmar [Burma]</countryName>
<fcl>A</fcl>
<fcode>ADM2</fcode>
</geoname>
<geoname>
<toponymName>Myawaddy District</toponymName>
<name>Myawaddy District</name>
<lat>16.54108</lat>
<lng>98.52983</lng>
<geonameId>8238710</geonameId>
<countryCode>MM</countryCode>
<countryName>Myanmar [Burma]</countryName>
<fcl>A</fcl>
<fcode>ADM2</fcode>
</geoname>
<geoname>
<toponymName>Nyaung-U District</toponymName>
<name>Nyaung-U District</name>
<lat>21.0881</lat>
<lng>95.03638</lng>
<geonameId>8238735</geonameId>
<countryCode>MM</countryCode>
<countryName>Myanmar [Burma]</countryName>
<fcl>A</fcl>
<fcode>ADM2</fcode>
</geoname>
<geoname>
<toponymName>Mong Hpayak District</toponymName>
<name>Mong Hpayak District</name>
<lat>21.20822</lat>
<lng>100.3476</lng>
<geonameId>8238773</geonameId>
<countryCode>MM</countryCode>
<countryName>Myanmar [Burma]</countryName>
<fcl>A</fcl>
<fcode>ADM2H</fcode>
</geoname>
<geoname>
<toponymName>Banwa</toponymName>
<name>Banwa</name>
<lat>25.56245</lat>
<lng>98.38333</lng>
<geonameId>8432743</geonameId>
<countryCode>MM</countryCode>
<countryName>Myanmar [Burma]</countryName>
<fcl>P</fcl>
<fcode>PPL</fcode>
</geoname>
<geoname>
<toponymName>Ann Airport</toponymName>
<name>Ann Airport</name>
<lat>19.77157</lat>
<lng>94.02654</lng>
<geonameId>8435631</geonameId>
<countryCode>MM</countryCode>
<countryName>Myanmar [Burma]</countryName>
<fcl>S</fcl>
<fcode>AIRP</fcode>
</geoname>
<geoname>
<toponymName>Tanintharyi Nature Reserve</toponymName>
<name>Tanintharyi Nature Reserve</name>
<lat>12.86536</lat>
<lng>99.06029</lng>
<geonameId>11287929</geonameId>
<countryCode>MM</countryCode>
<countryName>Myanmar [Burma]</countryName>
<fcl>L</fcl>
<fcode>RESN</fcode>
</geoname>
<geoname>
<toponymName>Coco Island Airport</toponymName>
<name>Coco Island Airport</name>
<lat>14.13518</lat>
<lng>93.36731</lng>
<geonameId>11258616</geonameId>
<countryCode>MM</countryCode>
<countryName>Myanmar [Burma]</countryName>
<fcl>S</fcl>
<fcode>AIRP</fcode>
</geoname>
<geoname>
<toponymName>Bokpyin Airport</toponymName>
<name>Bokpyin Airport</name>
<lat>11.15112</lat>
<lng>98.7355</lng>
<geonameId>10943319</geonameId>
<countryCode>MM</countryCode>
<countryName>Myanmar [Burma]</countryName>
<fcl>S</fcl>
<fcode>AIRP</fcode>
</geoname>
<geoname>
<toponymName>Tall Burmā</toponymName>
<name>Tall Burmā</name>
<lat>30.63918</lat>
<lng>35.84748</lng>
<geonameId>7015894</geonameId>
<countryCode>JO</countryCode>
<countryName>Jordan</countryName>
<fcl>P</fcl>
<fcode>PPL</fcode>
</geoname>
<geoname>
<toponymName>Tall Burmā</toponymName>
<name>Tall Burmā</name>
<lat>30.61079</lat>
<lng>35.82277</lng>
<geonameId>7015813</geonameId>
<countryCode>JO</countryCode>
<countryName>Jordan</countryName>
<fcl>P</fcl>
<fcode>PPL</fcode>
</geoname>
<geoname>
<toponymName>Gora Burma</toponymName>
<name>Gora Burma</name>
<lat>43.15638</lat>
<lng>54.01196</lng>
<geonameId>10371240</geonameId>
<countryCode>KZ</countryCode>
<countryName>Kazakhstan</countryName>
<fcl>T</fcl>
<fcode>HLL</fcode>
</geoname>
<geoname>
<toponymName>Birma</toponymName>
<name>Birma</name>
<lat>51.47093</lat>
<lng>128.43611</lng>
<geonameId>2026644</geonameId>
<countryCode>RU</countryCode>
<countryName>Russia</countryName>
<fcl>H</fcl>
<fcode>STM</fcode>
</geoname>
<geoname>
<toponymName>Birmā</toponymName>
<name>Birmā</name>
<lat>30.84426</lat>
<lng>30.9092</lng>
<geonameId>358766</geonameId>
<countryCode>EG</countryCode>
<countryName>Egypt</countryName>
<fcl>P</fcl>
<fcode>PPL</fcode>
</geoname>
<geoname>
<toponymName>Wuyaku Birma Ali</toponymName>
<name>Wuyaku Birma Ali</name>
<lat>10.85276</lat>
<lng>11.81654</lng>
<geonameId>2318537</geonameId>
<countryCode>NG</countryCode>
<countryName>Nigeria</countryName>
<fcl>P</fcl>
<fcode>PPL</fcode>
</geoname>
<geoname>
<toponymName>Burma</toponymName>
<name>Burma</name>
<lat>8.03365</lat>
<lng>-11.32875</lng>
<geonameId>9914533</geonameId>
<countryCode>SL</countryCode>
<countryName>Sierra Leone</countryName>
<fcl>P</fcl>
<fcode>PPL</fcode>
</geoname>
<geoname>
<toponymName>Magayi Reserved Forest</toponymName>
<name>Magayi Reserved Forest</name>
<lat>17.49264</lat>
<lng>95.96128</lng>
<geonameId>1480044</geonameId>
<countryCode>MM</countryCode>
<countryName>Myanmar [Burma]</countryName>
<fcl>L</fcl>
<fcode>RESF</fcode>
</geoname>
<geoname>
<toponymName>Mahuya Reserved Forest Block II</toponymName>
<name>Mahuya Reserved Forest Block II</name>
<lat>17.41819</lat>
<lng>96.11495</lng>
<geonameId>1480059</geonameId>
<countryCode>MM</countryCode>
<countryName>Myanmar [Burma]</countryName>
<fcl>L</fcl>
<fcode>RESF</fcode>
</geoname>
<geoname>
<toponymName>Okkan Reserved Forest</toponymName>
<name>Okkan Reserved Forest</name>
<lat>17.48416</lat>
<lng>96.02437</lng>
<geonameId>1480062</geonameId>
<countryCode>MM</countryCode>
<countryName>Myanmar [Burma]</countryName>
<fcl>L</fcl>
<fcode>RESF</fcode>
</geoname>
<geoname>
<toponymName>Gyiboga In</toponymName>
<name>Gyiboga In</name>
<lat>17.16461</lat>
<lng>96.20482</lng>
<geonameId>1480169</geonameId>
<countryCode>MM</countryCode>
<countryName>Myanmar [Burma]</countryName>
<fcl>H</fcl>
<fcode>LK</fcode>
</geoname>
<geoname>
<toponymName>Ingabo In</toponymName>
<name>Ingabo In</name>
<lat>17.17775</lat>
<lng>96.17683</lng>
<geonameId>1480173</geonameId>
<countryCode>MM</countryCode>
<countryName>Myanmar [Burma]</countryName>
<fcl>H</fcl>
<fcode>LK</fcode>
</geoname>
<geoname>
<toponymName>Inkobaw In</toponymName>
<name>Inkobaw In</name>
<lat>17.48988</lat>
<lng>96.30986</lng>
<geonameId>1480280</geonameId>
<countryCode>MM</countryCode>
<countryName>Myanmar [Burma]</countryName>
<fcl>H</fcl>
<fcode>LK</fcode>
</geoname>
<geoname>
<toponymName>Inapanaw In</toponymName>
<name>Inapanaw In</name>
<lat>17.46671</lat>
<lng>96.32974</lng>
<geonameId>1480289</geonameId>
<countryCode>MM</countryCode>
<countryName>Myanmar [Burma]</countryName>
<fcl>H</fcl>
<fcode>LK</fcode>
</geoname>
<geoname>
<toponymName>Aukkaba In</toponymName>
<name>Aukkaba In</name>
<lat>17.46648</lat>
<lng>96.36238</lng>
<geonameId>1480292</geonameId>
<countryCode>MM</countryCode>
<countryName>Myanmar [Burma]</countryName>
<fcl>H</fcl>
<fcode>LK</fcode>
</geoname>
<geoname>
<toponymName>Hlawga In</toponymName>
<name>Hlawga In</name>
<lat>17.43269</lat>
<lng>96.35832</lng>
<geonameId>1480293</geonameId>
<countryCode>MM</countryCode>
<countryName>Myanmar [Burma]</countryName>
<fcl>H</fcl>
<fcode>LK</fcode>
</geoname>
<geoname>
<toponymName>In Kada</toponymName>
<name>In Kada</name>
<lat>17.44396</lat>
<lng>96.36427</lng>
<geonameId>1480294</geonameId>
<countryCode>MM</countryCode>
<countryName>Myanmar [Burma]</countryName>
<fcl>H</fcl>
<fcode>LK</fcode>
</geoname>
<geoname>
<toponymName>Muhuya Reserved Forest Block One</toponymName>
<name>Muhuya Reserved Forest Block One</name>
<lat>17.4125</lat>
<lng>96.26528</lng>
<geonameId>1480383</geonameId>
<countryCode>MM</countryCode>
<countryName>Myanmar [Burma]</countryName>
<fcl>L</fcl>
<fcode>RESF</fcode>
</geoname>
<geoname>
<toponymName>Tandawnge In</toponymName>
<name>Tandawnge In</name>
<lat>17.47141</lat>
<lng>96.35278</lng>
<geonameId>1480386</geonameId>
<countryCode>MM</countryCode>
<countryName>Myanmar [Burma]</countryName>
<fcl>H</fcl>
<fcode>LK</fcode>
</geoname>
<geoname>
<toponymName>Inpadi In</toponymName>
<name>Inpadi In</name>
<lat>17.21776</lat>
<lng>96.28792</lng>
<geonameId>1480403</geonameId>
<countryCode>MM</countryCode>
<countryName>Myanmar [Burma]</countryName>
<fcl>H</fcl>
<fcode>LK</fcode>
</geoname>
<geoname>
<toponymName>Matapitu In</toponymName>
<name>Matapitu In</name>
<lat>17.2234</lat>
<lng>96.31028</lng>
<geonameId>1480441</geonameId>
<countryCode>MM</countryCode>
<countryName>Myanmar [Burma]</countryName>
<fcl>H</fcl>
<fcode>LK</fcode>
</geoname>
<geoname>
<toponymName>Sunpi In</toponymName>
<name>Sunpi In</name>
<lat>17.2052</lat>
<lng>96.29819</lng>
<geonameId>1480442</geonameId>
<countryCode>MM</countryCode>
<countryName>Myanmar [Burma]</countryName>
<fcl>H</fcl>
<fcode>LK</fcode>
</geoname>
<geoname>
<toponymName>Inkyan Inma</toponymName>
<name>Inkyan Inma</name>
<lat>17.19894</lat>
<lng>96.30282</lng>
<geonameId>1480443</geonameId>
<countryCode>MM</countryCode>
<countryName>Myanmar [Burma]</countryName>
<fcl>H</fcl>
<fcode>LK</fcode>
</geoname>
<geoname>
<toponymName>Khayawkhayin In</toponymName>
<name>Khayawkhayin In</name>
<lat>17.18756</lat>
<lng>96.30728</lng>
<geonameId>1480738</geonameId>
<countryCode>MM</countryCode>
<countryName>Myanmar [Burma]</countryName>
<fcl>H</fcl>
<fcode>LK</fcode>
</geoname>
<geoname>
<toponymName>Gonmin In</toponymName>
<name>Gonmin In</name>
<lat>17.17148</lat>
<lng>96.37642</lng>
<geonameId>1480759</geonameId>
<countryCode>MM</countryCode>
<countryName>Myanmar [Burma]</countryName>
<fcl>H</fcl>
<fcode>LK</fcode>
</geoname>
<geoname>
<toponymName>Yauk In</toponymName>
<name>Yauk In</name>
<lat>17.17137</lat>
<lng>96.29924</lng>
<geonameId>1480765</geonameId>
<countryCode>MM</countryCode>
<countryName>Myanmar [Burma]</countryName>
<fcl>H</fcl>
<fcode>LK</fcode>
</geoname>
<geoname>
<toponymName>Leik In</toponymName>
<name>Leik In</name>
<lat>17.17731</lat>
<lng>96.30601</lng>
<geonameId>1480881</geonameId>
<countryCode>MM</countryCode>
<countryName>Myanmar [Burma]</countryName>
<fcl>H</fcl>
<fcode>LK</fcode>
</geoname>
<geoname>
<toponymName>Konthandin In</toponymName>
<name>Konthandin In</name>
<lat>17.19987</lat>
<lng>96.33847</lng>
<geonameId>1480883</geonameId>
<countryCode>MM</countryCode>
<countryName>Myanmar [Burma]</countryName>
<fcl>H</fcl>
<fcode>LK</fcode>
</geoname>
<geoname>
<toponymName>Gonmin In</toponymName>
<name>Gonmin In</name>
<lat>17.18712</lat>
<lng>96.37724</lng>
<geonameId>1480888</geonameId>
<countryCode>MM</countryCode>
<countryName>Myanmar [Burma]</countryName>
<fcl>H</fcl>
<fcode>LK</fcode>
</geoname>
<geoname>
<toponymName>Kya In</toponymName>
<name>Kya In</name>
<lat>17.47728</lat>
<lng>96.34348</lng>
<geonameId>1480991</geonameId>
<countryCode>MM</countryCode>
<countryName>Myanmar [Burma]</countryName>
<fcl>H</fcl>
<fcode>LK</fcode>
</geoname>
<geoname>
<toponymName>Dkhpu In</toponymName>
<name>Dkhpu In</name>
<lat>17.48217</lat>
<lng>96.35978</lng>
<geonameId>1481241</geonameId>
<countryCode>MM</countryCode>
<countryName>Myanmar [Burma]</countryName>
<fcl>H</fcl>
<fcode>LK</fcode>
</geoname>
<geoname>
<toponymName>Kanbe Reserved Forest</toponymName>
<name>Kanbe Reserved Forest</name>
<lat>16.68116</lat>
<lng>95.99547</lng>
<geonameId>1482088</geonameId>
<countryCode>MM</countryCode>
<countryName>Myanmar [Burma]</countryName>
<fcl>L</fcl>
<fcode>RESF</fcode>
</geoname>
<geoname>
<toponymName>Kyundaw Reserved Forest</toponymName>
<name>Kyundaw Reserved Forest</name>
<lat>16.64382</lat>
<lng>96.00152</lng>
<geonameId>1482089</geonameId>
<countryCode>MM</countryCode>
<countryName>Myanmar [Burma]</countryName>
<fcl>L</fcl>
<fcode>RESF</fcode>
</geoname>
<geoname>
<toponymName>Kawhmu Reserved Forest</toponymName>
<name>Kawhmu Reserved Forest</name>
<lat>16.59929</lat>
<lng>95.9934</lng>
<geonameId>1482090</geonameId>
<countryCode>MM</countryCode>
<countryName>Myanmar [Burma]</countryName>
<fcl>L</fcl>
<fcode>RESF</fcode>
</geoname>
<geoname>
<toponymName>Tamhpak Reserved Forest</toponymName>
<name>Tamhpak Reserved Forest</name>
<lat>19.95972</lat>
<lng>97.27861</lng>
<geonameId>1478898</geonameId>
<countryCode>MM</countryCode>
<countryName>Myanmar [Burma]</countryName>
<fcl>L</fcl>
<fcode>RESF</fcode>
</geoname>
<geoname>
<toponymName>Hkai-long</toponymName>
<name>Hkai-long</name>
<lat>19.95061</lat>
<lng>97.28042</lng>
<geonameId>1478906</geonameId>
<countryCode>MM</countryCode>
<countryName>Myanmar [Burma]</countryName>
<fcl>H</fcl>
<fcode>LK</fcode>
</geoname>
<geoname>
<toponymName>Marāng Htung</toponymName>
<name>Marāng Htung</name>
<lat>26.74616</lat>
<lng>98.44094</lng>
<geonameId>1310486</geonameId>
<countryCode>MM</countryCode>
<countryName>Myanmar [Burma]</countryName>
<fcl>P</fcl>
<fcode>PPL</fcode>
</geoname>
<geoname>
<toponymName>Mapili</toponymName>
<name>Mapili</name>
<lat>26.26922</lat>
<lng>98.56528</lng>
<geonameId>1310502</geonameId>
<countryCode>MM</countryCode>
<countryName>Myanmar [Burma]</countryName>
<fcl>P</fcl>
<fcode>PPL</fcode>
</geoname>
<geoname>
<toponymName>Mān Yut</toponymName>
<name>Mān Yut</name>
<lat>24.18397</lat>
<lng>97.2733</lng>
<geonameId>1310511</geonameId>
<countryCode>MM</countryCode>
<countryName>Myanmar [Burma]</countryName>
<fcl>P</fcl>
<fcode>PPL</fcode>
</geoname>
<geoname>
<toponymName>Mān Wein</toponymName>
<name>Mān Wein</name>
<lat>24.08975</lat>
<lng>97.23628</lng>
<geonameId>1310549</geonameId>
<countryCode>MM</countryCode>
<countryName>Myanmar [Burma]</countryName>
<fcl>P</fcl>
<fcode>PPL</fcode>
</geoname>
<geoname>
<toponymName>Mantun</toponymName>
<name>Mantun</name>
<lat>24.70025</lat>
<lng>95.73939</lng>
<geonameId>1310578</geonameId>
<countryCode>MM</countryCode>
<countryName>Myanmar [Burma]</countryName>
<fcl>P</fcl>
<fcode>PPL</fcode>
</geoname>
<geoname>
<toponymName>Mān The</toponymName>
<name>Mān The</name>
<lat>24.10022</lat>
<lng>97.20485</lng>
<geonameId>1310606</geonameId>
<countryCode>MM</countryCode>
<countryName>Myanmar [Burma]</countryName>
<fcl>P</fcl>
<fcode>PPL</fcode>
</geoname>
<geoname>
<toponymName>Mānsān</toponymName>
<name>Mānsān</name>
<lat>22.67092</lat>
<lng>96.92914</lng>
<geonameId>1310717</geonameId>
<countryCode>MM</countryCode>
<countryName>Myanmar [Burma]</countryName>
<fcl>P</fcl>
<fcode>PPL</fcode>
</geoname>
<geoname>
<toponymName>Mān Pu</toponymName>
<name>Mān Pu</name>
<lat>24.20668</lat>
<lng>97.01637</lng>
<geonameId>1310756</geonameId>
<countryCode>MM</countryCode>
<countryName>Myanmar [Burma]</countryName>
<fcl>P</fcl>
<fcode>PPL</fcode>
</geoname>
<geoname>
<toponymName>Mānpraw</toponymName>
<name>Mānpraw</name>
<lat>23.88355</lat>
<lng>96.95238</lng>
<geonameId>1310757</geonameId>
<countryCode>MM</countryCode>
<countryName>Myanmar [Burma]</countryName>
<fcl>P</fcl>
<fcode>PPL</fcode>
</geoname>
<geoname>
<toponymName>Manpagale</toponymName>
<name>Manpagale</name>
<lat>23.51722</lat>
<lng>94.40566</lng>
<geonameId>1310918</geonameId>
<countryCode>MM</countryCode>
<countryName>Myanmar [Burma]</countryName>
<fcl>P</fcl>
<fcode>PPL</fcode>
</geoname>
<geoname>
<toponymName>Mān Naung</toponymName>
<name>Mān Naung</name>
<lat>24.40866</lat>
<lng>97.33028</lng>
<geonameId>1311004</geonameId>
<countryCode>MM</countryCode>
<countryName>Myanmar [Burma]</countryName>
<fcl>P</fcl>
<fcode>PPL</fcode>
</geoname>
<geoname>
<toponymName>Man Na</toponymName>
<name>Man Na</name>
<lat>22.53707</lat>
<lng>97.38989</lng>
<geonameId>1311127</geonameId>
<countryCode>MM</countryCode>
<countryName>Myanmar [Burma]</countryName>
<fcl>P</fcl>
<fcode>PPL</fcode>
</geoname>
<geoname>
<toponymName>Manmaw Reserved Forest</toponymName>
<name>Manmaw Reserved Forest</name>
<lat>24.59262</lat>
<lng>96.03177</lng>
<geonameId>1311160</geonameId>
<countryCode>MM</countryCode>
<countryName>Myanmar [Burma]</countryName>
<fcl>L</fcl>
<fcode>RESF</fcode>
</geoname>
<geoname>
<toponymName>Mān Kham</toponymName>
<name>Mān Kham</name>
<lat>24.11205</lat>
<lng>97.25189</lng>
<geonameId>1311459</geonameId>
<countryCode>MM</countryCode>
<countryName>Myanmar [Burma]</countryName>
<fcl>P</fcl>
<fcode>PPL</fcode>
</geoname>
<geoname>
<toponymName>Mankat Reserved Forest</toponymName>
<name>Mankat Reserved Forest</name>
<lat>24.25</lat>
<lng>95.78333</lng>
<geonameId>1311531</geonameId>
<countryCode>MM</countryCode>
<countryName>Myanmar [Burma]</countryName>
<fcl>L</fcl>
<fcode>RESF</fcode>
</geoname>
<geoname>
<toponymName>Mankat</toponymName>
<name>Mankat</name>
<lat>24.27252</lat>
<lng>95.84064</lng>
<geonameId>1311534</geonameId>
<countryCode>MM</countryCode>
<countryName>Myanmar [Burma]</countryName>
<fcl>P</fcl>
<fcode>PPL</fcode>
</geoname>
<geoname>
<toponymName>Mān Kang</toponymName>
<name>Mān Kang</name>
<lat>24.17852</lat>
<lng>97.29961</lng>
<geonameId>1311557</geonameId>
<countryCode>MM</countryCode>
<countryName>Myanmar [Burma]</countryName>
<fcl>P</fcl>
<fcode>PPL</fcode>
</geoname>
<geoname>
<toponymName>Manhton</toponymName>
<name>Manhton</name>
<lat>24.57149</lat>
<lng>95.95661</lng>
<geonameId>1311614</geonameId>
<countryCode>MM</countryCode>
<countryName>Myanmar [Burma]</countryName>
<fcl>P</fcl>
<fcode>PPL</fcode>
</geoname>
<geoname>
<toponymName>Mān Hpa</toponymName>
<name>Mān Hpa</name>
<lat>24.21623</lat>
<lng>97.28018</lng>
<geonameId>1311709</geonameId>
<countryCode>MM</countryCode>
<countryName>Myanmar [Burma]</countryName>
<fcl>P</fcl>
<fcode>PPL</fcode>
</geoname>
<geoname>
<toponymName>Mān Ho</toponymName>
<name>Mān Ho</name>
<lat>24.21667</lat>
<lng>97.26667</lng>
<geonameId>1311755</geonameId>
<countryCode>MM</countryCode>
<countryName>Myanmar [Burma]</countryName>
<fcl>P</fcl>
<fcode>PPL</fcode>
</geoname>
<geoname>
<toponymName>Mangtong</toponymName>
<name>Mangtong</name>
<lat>25.95222</lat>
<lng>98.16099</lng>
<geonameId>1311823</geonameId>
<countryCode>MM</countryCode>
<countryName>Myanmar [Burma]</countryName>
<fcl>P</fcl>
<fcode>PPL</fcode>
</geoname>
<geoname>
<toponymName>Mangsan</toponymName>
<name>Mangsan</name>
<lat>21.56136</lat>
<lng>92.79241</lng>
<geonameId>1311825</geonameId>
<countryCode>MM</countryCode>
<countryName>Myanmar [Burma]</countryName>
<fcl>P</fcl>
<fcode>PPL</fcode>
</geoname>
<geoname>
<toponymName>Mangon</toponymName>
<name>Mangon</name>
<lat>24.46337</lat>
<lng>95.72063</lng>
<geonameId>1311832</geonameId>
<countryCode>MM</countryCode>
<countryName>Myanmar [Burma]</countryName>
<fcl>P</fcl>
<fcode>PPL</fcode>
</geoname>
<geoname>
<toponymName>Mangkyi</toponymName>
<name>Mangkyi</name>
<lat>26.28766</lat>
<lng>98.31958</lng>
<geonameId>1311838</geonameId>
<countryCode>MM</countryCode>
<countryName>Myanmar [Burma]</countryName>
<fcl>P</fcl>
<fcode>PPL</fcode>
</geoname>
<geoname>
<toponymName>Māngchibuk</toponymName>
<name>Māngchibuk</name>
<lat>26.47457</lat>
<lng>98.27314</lng>
<geonameId>1311849</geonameId>
<countryCode>MM</countryCode>
<countryName>Myanmar [Burma]</countryName>
<fcl>P</fcl>
<fcode>PPL</fcode>
</geoname>
<geoname>
<toponymName>Mang-ai</toponymName>
<name>Mang-ai</name>
<lat>25.72563</lat>
<lng>98.0137</lng>
<geonameId>1311857</geonameId>
<countryCode>MM</countryCode>
<countryName>Myanmar [Burma]</countryName>
<fcl>P</fcl>
<fcode>PPL</fcode>
</geoname>
<geoname>
<toponymName>Mandalay Hill</toponymName>
<name>Mandalay Hill</name>
<lat>22.03333</lat>
<lng>96.1</lng>
<geonameId>1311870</geonameId>
<countryCode>MM</countryCode>
<countryName>Myanmar [Burma]</countryName>
<fcl>T</fcl>
<fcode>HLL</fcode>
</geoname>
<geoname>
<toponymName>Mān Bung</toponymName>
<name>Mān Bung</name>
<lat>24.23598</lat>
<lng>97.32474</lng>
<geonameId>1311893</geonameId>
<countryCode>MM</countryCode>
<countryName>Myanmar [Burma]</countryName>
<fcl>P</fcl>
<fcode>PPL</fcode>
</geoname>
<geoname>
<toponymName>Mān Aw</toponymName>
<name>Mān Aw</name>
<lat>24.48037</lat>
<lng>96.91331</lng>
<geonameId>1311903</geonameId>
<countryCode>MM</countryCode>
<countryName>Myanmar [Burma]</countryName>
<fcl>P</fcl>
<fcode>PPL</fcode>
</geoname>
<geoname>
<toponymName>Manaung Reserved Forest</toponymName>
<name>Manaung Reserved Forest</name>
<lat>15.11779</lat>
<lng>98.00175</lng>
<geonameId>1311906</geonameId>
<countryCode>MM</countryCode>
<countryName>Myanmar [Burma]</countryName>
<fcl>L</fcl>
<fcode>RESF</fcode>
</geoname>
<geoname>
<toponymName>Dawei Island</toponymName>
<name>Dawei Island</name>
<lat>13.11041</lat>
<lng>98.27038</lng>
<geonameId>1311979</geonameId>
<countryCode>MM</countryCode>
<countryName>Myanmar [Burma]</countryName>
<fcl>T</fcl>
<fcode>ISL</fcode>
</geoname>
<geoname>
<toponymName>Mali Kaing</toponymName>
<name>Mali Kaing</name>
<lat>12.9635</lat>
<lng>98.239</lng>
<geonameId>1311981</geonameId>
<countryCode>MM</countryCode>
<countryName>Myanmar [Burma]</countryName>
<fcl>T</fcl>
<fcode>ISL</fcode>
</geoname>
<geoname>
<toponymName>Mali Don</toponymName>
<name>Mali Don</name>
<lat>12.89252</lat>
<lng>98.25551</lng>
<geonameId>1311984</geonameId>
<countryCode>MM</countryCode>
<countryName>Myanmar [Burma]</countryName>
<fcl>T</fcl>
<fcode>ISL</fcode>
</geoname>
<geoname>
<toponymName>Maingwun Reserved Forest</toponymName>
<name>Maingwun Reserved Forest</name>
<lat>23.55632</lat>
<lng>94.99964</lng>
<geonameId>1312208</geonameId>
<countryCode>MM</countryCode>
<countryName>Myanmar [Burma]</countryName>
<fcl>L</fcl>
<fcode>RESF</fcode>
</geoname>
<geoname>
<toponymName>Maingtha Reserved Forest</toponymName>
<name>Maingtha Reserved Forest</name>
<lat>23.69869</lat>
<lng>96.71633</lng>
<geonameId>1312218</geonameId>
<countryCode>MM</countryCode>
<countryName>Myanmar [Burma]</countryName>
<fcl>L</fcl>
<fcode>RESF</fcode>
</geoname>
<geoname>
<toponymName>Maingnaung Reserved Forest</toponymName>
<name>Maingnaung Reserved Forest</name>
<lat>25.01667</lat>
<lng>96.28333</lng>
<geonameId>1312228</geonameId>
<countryCode>MM</countryCode>
<countryName>Myanmar [Burma]</countryName>
<fcl>L</fcl>
<fcode>RESF</fcode>
</geoname>
<geoname>
<toponymName>Maingkwan</toponymName>
<name>Maingkwan</name>
<lat>26.32028</lat>
<lng>96.59255</lng>
<geonameId>1312239</geonameId>
<countryCode>MM</countryCode>
<countryName>Myanmar [Burma]</countryName>
<fcl>P</fcl>
<fcode>PPL</fcode>
</geoname>
<geoname>
<toponymName>Maing Ka</toponymName>
<name>Maing Ka</name>
<lat>24.30461</lat>
<lng>97.18756</lng>
<geonameId>1312243</geonameId>
<countryCode>MM</countryCode>
<countryName>Myanmar [Burma]</countryName>
<fcl>P</fcl>
<fcode>PPL</fcode>
</geoname>
<geoname>
<toponymName>Mainghein Reserved Forest</toponymName>
<name>Mainghein Reserved Forest</name>
<lat>23.76981</lat>
<lng>96.82614</lng>
<geonameId>1312245</geonameId>
<countryCode>MM</countryCode>
<countryName>Myanmar [Burma]</countryName>
<fcl>L</fcl>
<fcode>RESF</fcode>
</geoname>
<geoname>
<toponymName>Mainghein</toponymName>
<name>Mainghein</name>
<lat>23.75953</lat>
<lng>96.81402</lng>
<geonameId>1312246</geonameId>
<countryCode>MM</countryCode>
<countryName>Myanmar [Burma]</countryName>
<fcl>P</fcl>
<fcode>PPL</fcode>
</geoname>
<geoname>
<toponymName>Maihtingyang</toponymName>
<name>Maihtingyang</name>
<lat>24.66242</lat>
<lng>96.82972</lng>
<geonameId>1312272</geonameId>
<countryCode>MM</countryCode>
<countryName>Myanmar [Burma]</countryName>
<fcl>P</fcl>
<fcode>PPL</fcode>
</geoname>
<geoname>
<toponymName>Maihpit</toponymName>
<name>Maihpit</name>
<lat>20.32126</lat>
<lng>97.15837</lng>
<geonameId>1312280</geonameId>
<countryCode>MM</countryCode>
<countryName>Myanmar [Burma]</countryName>
<fcl>P</fcl>
<fcode>PPL</fcode>
</geoname>
<geoname>
<toponymName>Maichyen</toponymName>
<name>Maichyen</name>
<lat>24.51849</lat>
<lng>96.97999</lng>
<geonameId>1312295</geonameId>
<countryCode>MM</countryCode>
<countryName>Myanmar [Burma]</countryName>
<fcl>P</fcl>
<fcode>PPL</fcode>
</geoname>
<geoname>
<toponymName>Mahlaing</toponymName>
<name>Mahlaing</name>
<lat>21.09936</lat>
<lng>95.64643</lng>
<geonameId>1312348</geonameId>
<countryCode>MM</countryCode>
<countryName>Myanmar [Burma]</countryName>
<fcl>P</fcl>
<fcode>PPL</fcode>
</geoname>
<geoname>
<toponymName>Mahaw</toponymName>
<name>Mahaw</name>
<lat>24.35638</lat>
<lng>95.43206</lng>
<geonameId>1312368</geonameId>
<countryCode>MM</countryCode>
<countryName>Myanmar [Burma]</countryName>
<fcl>P</fcl>
<fcode>PPL</fcode>
</geoname>
<geoname>
<toponymName>Magyi Island</toponymName>
<name>Magyi Island</name>
<lat>14.93724</lat>
<lng>97.78442</lng>
<geonameId>1312432</geonameId>
<countryCode>MM</countryCode>
<countryName>Myanmar [Burma]</countryName>
<fcl>T</fcl>
<fcode>ISL</fcode>
</geoname>
<geoname>
<toponymName>Magyigon</toponymName>
<name>Magyigon</name>
<lat>24.7303</lat>
<lng>95.66283</lng>
<geonameId>1312459</geonameId>
<countryCode>MM</countryCode>
<countryName>Myanmar [Burma]</countryName>
<fcl>P</fcl>
<fcode>PPL</fcode>
</geoname>
<geoname>
<toponymName>Magyigon</toponymName>
<name>Magyigon</name>
<lat>24.6788</lat>
<lng>95.72927</lng>
<geonameId>1312460</geonameId>
<countryCode>MM</countryCode>
<countryName>Myanmar [Burma]</countryName>
<fcl>P</fcl>
<fcode>PPL</fcode>
</geoname>
<geoname>
<toponymName>Magyigon</toponymName>
<name>Magyigon</name>
<lat>24.34908</lat>
<lng>95.39931</lng>
<geonameId>1312461</geonameId>
<countryCode>MM</countryCode>
<countryName>Myanmar [Burma]</countryName>
<fcl>P</fcl>
<fcode>PPL</fcode>
</geoname>
<geoname>
<toponymName>Magyigon</toponymName>
<name>Magyigon</name>
<lat>24.26603</lat>
<lng>95.85031</lng>
<geonameId>1312463</geonameId>
<countryCode>MM</countryCode>
<countryName>Myanmar [Burma]</countryName>
<fcl>P</fcl>
<fcode>PPL</fcode>
</geoname>
<geoname>
<toponymName>Māge</toponymName>
<name>Māge</name>
<lat>26.55168</lat>
<lng>98.53719</lng>
<geonameId>1312616</geonameId>
<countryCode>MM</countryCode>
<countryName>Myanmar [Burma]</countryName>
<fcl>P</fcl>
<fcode>PPL</fcode>
</geoname>
<geoname>
<toponymName>Magawng</toponymName>
<name>Magawng</name>
<lat>25.73614</lat>
<lng>98.09648</lng>
<geonameId>1312620</geonameId>
<countryCode>MM</countryCode>
<countryName>Myanmar [Burma]</countryName>
<fcl>P</fcl>
<fcode>PPL</fcode>
</geoname>
<geoname>
<toponymName>Madaya</toponymName>
<name>Madaya</name>
<lat>22.21148</lat>
<lng>96.10387</lng>
<geonameId>1312649</geonameId>
<countryCode>MM</countryCode>
<countryName>Myanmar [Burma]</countryName>
<fcl>P</fcl>
<fcode>PPL</fcode>
</geoname>
<geoname>
<toponymName>Machyang</toponymName>
<name>Machyang</name>
<lat>24.53269</lat>
<lng>97.19347</lng>
<geonameId>1312691</geonameId>
<countryCode>MM</countryCode>
<countryName>Myanmar [Burma]</countryName>
<fcl>P</fcl>
<fcode>PPL</fcode>
</geoname>
<geoname>
<toponymName>Māchulo</toponymName>
<name>Māchulo</name>
<lat>25.96735</lat>
<lng>98.62452</lng>
<geonameId>1312692</geonameId>
<countryCode>MM</countryCode>
<countryName>Myanmar [Burma]</countryName>
<fcl>P</fcl>
<fcode>PPL</fcode>
</geoname>
<geoname>
<toponymName>Machanbaw</toponymName>
<name>Machanbaw</name>
<lat>27.26667</lat>
<lng>97.6</lng>
<geonameId>1312696</geonameId>
<countryCode>MM</countryCode>
<countryName>Myanmar [Burma]</countryName>
<fcl>P</fcl>
<fcode>PPL</fcode>
</geoname>
<geoname>
<toponymName>Nawng Ma</toponymName>
<name>Nawng Ma</name>
<lat>19.96446</lat>
<lng>97.23108</lng>
<geonameId>1312712</geonameId>
<countryCode>MM</countryCode>
<countryName>Myanmar [Burma]</countryName>
<fcl>H</fcl>
<fcode>LK</fcode>
</geoname>
<geoname>
<toponymName>Lwin-u</toponymName>
<name>Lwin-u</name>
<lat>24.45837</lat>
<lng>95.73642</lng>
<geonameId>1312726</geonameId>
<countryCode>MM</countryCode>
<countryName>Myanmar [Burma]</countryName>
<fcl>P</fcl>
<fcode>PPL</fcode>
</geoname>
<geoname>
